{"type":"FeatureCollection","features":[{"type":"Feature","properties":{"id":"landmark-250668618","name":"アーティゾン美術館"},"geometry":{"type":"Point","coordinates":[139.77213,35.67875]}},{"type":"Feature","properties":{"id":"landmark-250668627","name":"東京都写真美術館"},"geometry":{"type":"Point","coordinates":[139.7134,35.64154]}},{"type":"Feature","properties":{"id":"landmark-252675438","name":"観世能楽堂"},"geometry":{"type":"Point","coordinates":[139.69357,35.66204]}},{"type":"Feature","properties":{"id":"landmark-260158760","name":"蔵前水の館"},"geometry":{"type":"Point","coordinates":[139.79136,35.70165]}},{"type":"Feature","properties":{"id":"landmark-260207768","name":"下山国鉄総裁追憶碑"},"geometry":{"type":"Point","coordinates":[139.81552,35.76099]}},{"type":"Feature","properties":{"id":"landmark-260408025","name":"烏森神社"},"geometry":{"type":"Point","coordinates":[139.75682,35.6668]}},{"type":"Feature","properties":{"id":"landmark-302022636","name":"新島のモヤイ像"},"geometry":{"type":"Point","coordinates":[139.71697,35.56237]}},{"type":"Feature","properties":{"id":"landmark-304417962","name":"勝海舟夫妻墓所"},"geometry":{"type":"Point","coordinates":[139.6922,35.60242]}},{"type":"Feature","properties":{"id":"landmark-304422978","name":"妙福寺"},"geometry":{"type":"Point","coordinates":[139.69202,35.60114]}},{"type":"Feature","properties":{"id":"landmark-312492160","name":"庚申塚古墳"},"geometry":{"type":"Point","coordinates":[139.43405,35.64159]}},{"type":"Feature","properties":{"id":"landmark-340381542","name":"恵比寿神社"},"geometry":{"type":"Point","coordinates":[139.70778,35.64722]}},{"type":"Feature","properties":{"id":"landmark-355245351","name":"いのはな慰霊の碑"},"geometry":{"type":"Point","coordinates":[139.25742,35.63974]}},{"type":"Feature","properties":{"id":"landmark-370090849","name":"三河島事故慰霊碑"},"geometry":{"type":"Point","coordinates":[139.77961,35.73562]}},{"type":"Feature","properties":{"id":"landmark-389635180","name":"妙像寺"},"geometry":{"type":"Point","coordinates":[139.73549,35.66575]}},{"type":"Feature","properties":{"id":"landmark-410166105","name":"日本サッカーミュージアム"},"geometry":{"type":"Point","coordinates":[139.76394,35.70425]}},{"type":"Feature","properties":{"id":"landmark-416338859","name":"一里塚"},"geometry":{"type":"Point","coordinates":[139.74131,35.74696]}},{"type":"Feature","properties":{"id":"landmark-416517262","name":"中近東文化センター"},"geometry":{"type":"Point","coordinates":[139.53458,35.68879]}},{"type":"Feature","properties":{"id":"landmark-417434075","name":"神楽坂若宮八幡宮"},"geometry":{"type":"Point","coordinates":[139.74011,35.69973]}},{"type":"Feature","properties":{"id":"landmark-427886909","name":"大村益次郎銅像"},"geometry":{"type":"Point","coordinates":[139.74638,35.6948]}},{"type":"Feature","properties":{"id":"landmark-427893000","name":"芝東照宮"},"geometry":{"type":"Point","coordinates":[139.74863,35.6551]}},{"type":"Feature","properties":{"id":"landmark-440069983","name":"白山神社"},"geometry":{"type":"Point","coordinates":[139.63717,35.68696]}},{"type":"Feature","properties":{"id":"landmark-441655802","name":"上野の森美術館"},"geometry":{"type":"Point","coordinates":[139.77477,35.71285]}},{"type":"Feature","properties":{"id":"landmark-442095349","name":"御観兵榎"},"geometry":{"type":"Point","coordinates":[139.72085,35.67593]}},{"type":"Feature","properties":{"id":"landmark-443387293","name":"永福寺"},"geometry":{"type":"Point","coordinates":[139.64411,35.67225]}},{"type":"Feature","properties":{"id":"landmark-443397545","name":"八幡神社"},"geometry":{"type":"Point","coordinates":[139.63042,35.67523]}},{"type":"Feature","properties":{"id":"landmark-443698249","name":"松林寺"},"geometry":{"type":"Point","coordinates":[139.62085,35.68638]}},{"type":"Feature","properties":{"id":"landmark-448140871","name":"勝林寺"},"geometry":{"type":"Point","coordinates":[139.65189,35.66391]}},{"type":"Feature","properties":{"id":"landmark-448141327","name":"浄徳寺"},"geometry":{"type":"Point","coordinates":[139.65187,35.66326]}},{"type":"Feature","properties":{"id":"landmark-448141514","name":"延重寺"},"geometry":{"type":"Point","coordinates":[139.65212,35.66379]}},{"type":"Feature","properties":{"id":"landmark-449554138","name":"妙正寺"},"geometry":{"type":"Point","coordinates":[139.61762,35.71595]}},{"type":"Feature","properties":{"id":"landmark-452559429","name":"松庵稲荷神社 (Shoan-Inarijinja)"},"geometry":{"type":"Point","coordinates":[139.59582,35.69949]}},{"type":"Feature","properties":{"id":"landmark-480772805","name":"百周年記念館"},"geometry":{"type":"Point","coordinates":[139.6343,35.66366]}},{"type":"Feature","properties":{"id":"landmark-506125531","name":"願行寺"},"geometry":{"type":"Point","coordinates":[139.75882,35.71818]}},{"type":"Feature","properties":{"id":"landmark-506176366","name":"西教寺"},"geometry":{"type":"Point","coordinates":[139.759,35.71721]}},{"type":"Feature","properties":{"id":"landmark-506214950","name":"真島稲荷神社"},"geometry":{"type":"Point","coordinates":[139.76592,35.72105]}},{"type":"Feature","properties":{"id":"landmark-506214977","name":"三四真地蔵尊"},"geometry":{"type":"Point","coordinates":[139.76531,35.72571]}},{"type":"Feature","properties":{"id":"landmark-508446313","name":"二・二六事件慰霊像"},"geometry":{"type":"Point","coordinates":[139.69696,35.66432]}},{"type":"Feature","properties":{"id":"landmark-515619356","name":"お茶の水"},"geometry":{"type":"Point","coordinates":[139.57527,35.70117]}},{"type":"Feature","properties":{"id":"landmark-552677703","name":"八広子育地蔵尊"},"geometry":{"type":"Point","coordinates":[139.82298,35.72228]}},{"type":"Feature","properties":{"id":"landmark-552697551","name":"三輪里稲荷神社 （こんにゃく稲荷）"},"geometry":{"type":"Point","coordinates":[139.82638,35.72045]}},{"type":"Feature","properties":{"id":"landmark-552697557","name":"正覚寺"},"geometry":{"type":"Point","coordinates":[139.82612,35.72017]}},{"type":"Feature","properties":{"id":"landmark-563674244","name":"多田神社"},"geometry":{"type":"Point","coordinates":[139.66378,35.68326]}},{"type":"Feature","properties":{"id":"landmark-563674394","name":"寳福寺"},"geometry":{"type":"Point","coordinates":[139.66375,35.68359]}},{"type":"Feature","properties":{"id":"landmark-579662653","name":"福昌寺"},"geometry":{"type":"Point","coordinates":[139.63624,35.65052]}},{"type":"Feature","properties":{"id":"landmark-593986658","name":"池上本門寺"},"geometry":{"type":"Point","coordinates":[139.7052,35.5789]}},{"type":"Feature","properties":{"id":"landmark-597377002","name":"宗延寺"},"geometry":{"type":"Point","coordinates":[139.65385,35.69401]}},{"type":"Feature","properties":{"id":"landmark-597378090","name":"本仏寺"},"geometry":{"type":"Point","coordinates":[139.65235,35.69492]}},{"type":"Feature","properties":{"id":"landmark-597378609","name":"修行寺"},"geometry":{"type":"Point","coordinates":[139.65136,35.69476]}},{"type":"Feature","properties":{"id":"landmark-599497900","name":"文殊院"},"geometry":{"type":"Point","coordinates":[139.70964,35.75595]}},{"type":"Feature","properties":{"id":"landmark-604349728","name":"五島美術館別館"},"geometry":{"type":"Point","coordinates":[139.63587,35.61199]}},{"type":"Feature","properties":{"id":"landmark-610939786","name":"観音寺"},"geometry":{"type":"Point","coordinates":[139.60163,35.62362]}},{"type":"Feature","properties":{"id":"landmark-618611485","name":"医王寺"},"geometry":{"type":"Point","coordinates":[139.61193,35.67403]}},{"type":"Feature","properties":{"id":"landmark-625542881","name":"東京バプテスト教会"},"geometry":{"type":"Point","coordinates":[139.69755,35.65042]}},{"type":"Feature","properties":{"id":"landmark-633212807","name":"打越天神北野神社"},"geometry":{"type":"Point","coordinates":[139.67192,35.70722]}},{"type":"Feature","properties":{"id":"landmark-638217271","name":"延浄寺"},"geometry":{"type":"Point","coordinates":[139.57059,35.66342]}},{"type":"Feature","properties":{"id":"landmark-638960286","name":"昌翁寺"},"geometry":{"type":"Point","coordinates":[139.58495,35.66407]}},{"type":"Feature","properties":{"id":"landmark-651573302","name":"世田谷美術館分館 清川泰次記念ギャラリー"},"geometry":{"type":"Point","coordinates":[139.60084,35.63858]}},{"type":"Feature","properties":{"id":"landmark-665718732","name":"氷川神社"},"geometry":{"type":"Point","coordinates":[139.67107,35.61878]}},{"type":"Feature","properties":{"id":"landmark-676620806","name":"六地蔵"},"geometry":{"type":"Point","coordinates":[139.38087,35.7659]}},{"type":"Feature","properties":{"id":"landmark-691320555","name":"圓福寺"},"geometry":{"type":"Point","coordinates":[139.73508,35.70215]}},{"type":"Feature","properties":{"id":"landmark-691320609","name":"法正寺"},"geometry":{"type":"Point","coordinates":[139.73629,35.70184]}},{"type":"Feature","properties":{"id":"landmark-691471427","name":"市谷亀岡八幡宮"},"geometry":{"type":"Point","coordinates":[139.73372,35.69274]}},{"type":"Feature","properties":{"id":"landmark-691481681","name":"市ヶ谷見附"},"geometry":{"type":"Point","coordinates":[139.7362,35.69142]}},{"type":"Feature","properties":{"id":"landmark-701720727","name":"天祖神社"},"geometry":{"type":"Point","coordinates":[139.86707,35.72263]}},{"type":"Feature","properties":{"id":"landmark-701854488","name":"荻窪八幡神社"},"geometry":{"type":"Point","coordinates":[139.60633,35.71062]}},{"type":"Feature","properties":{"id":"landmark-701873029","name":"モヤイ像"},"geometry":{"type":"Point","coordinates":[139.70089,35.65848]}},{"type":"Feature","properties":{"id":"landmark-702326976","name":"金比羅台"},"geometry":{"type":"Point","coordinates":[139.26178,35.6355]}},{"type":"Feature","properties":{"id":"landmark-703040018","name":"伏見三宝稲荷神社"},"geometry":{"type":"Point","coordinates":[139.74539,35.65423]}},{"type":"Feature","properties":{"id":"landmark-703042172","name":"妙定院"},"geometry":{"type":"Point","coordinates":[139.74616,35.6545]}},{"type":"Feature","properties":{"id":"landmark-705006535","name":"願泉寺"},"geometry":{"type":"Point","coordinates":[139.61222,35.70397]}},{"type":"Feature","properties":{"id":"landmark-705142753","name":"三界寺"},"geometry":{"type":"Point","coordinates":[139.6438,35.65863]}},{"type":"Feature","properties":{"id":"landmark-712908281","name":"安養寺"},"geometry":{"type":"Point","coordinates":[139.84262,35.71251]}},{"type":"Feature","properties":{"id":"landmark-724639010","name":"白髭神社"},"geometry":{"type":"Point","coordinates":[139.8403,35.73284]}},{"type":"Feature","properties":{"id":"landmark-724732016","name":"日枝神社"},"geometry":{"type":"Point","coordinates":[139.83008,35.72696]}},{"type":"Feature","properties":{"id":"landmark-724828653","name":"寶蔵寺"},"geometry":{"type":"Point","coordinates":[139.82678,35.72758]}},{"type":"Feature","properties":{"id":"landmark-725876350","name":"光照寺"},"geometry":{"type":"Point","coordinates":[139.56174,35.65618]}},{"type":"Feature","properties":{"id":"landmark-730163360","name":"慈眼院"},"geometry":{"type":"Point","coordinates":[139.83372,35.7399]}},{"type":"Feature","properties":{"id":"landmark-730163368","name":"篠原稲荷神社"},"geometry":{"type":"Point","coordinates":[139.83368,35.7402]}},{"type":"Feature","properties":{"id":"landmark-735982292","name":"東小松川香取神社"},"geometry":{"type":"Point","coordinates":[139.86739,35.70908]}},{"type":"Feature","properties":{"id":"landmark-752170375","name":"青龍神社"},"geometry":{"type":"Point","coordinates":[139.86191,35.75161]}},{"type":"Feature","properties":{"id":"landmark-762228982","name":"庚申塔"},"geometry":{"type":"Point","coordinates":[139.70447,35.65302]}},{"type":"Feature","properties":{"id":"landmark-762229400","name":"地蔵塔"},"geometry":{"type":"Point","coordinates":[139.70443,35.65299]}},{"type":"Feature","properties":{"id":"landmark-762229455","name":"廿三夜塔"},"geometry":{"type":"Point","coordinates":[139.70445,35.653]}},{"type":"Feature","properties":{"id":"landmark-779020664","name":"興安寺"},"geometry":{"type":"Point","coordinates":[139.75799,35.70378]}},{"type":"Feature","properties":{"id":"landmark-810749319","name":"蓮光寺"},"geometry":{"type":"Point","coordinates":[139.65491,35.69565]}},{"type":"Feature","properties":{"id":"landmark-811208933","name":"土と農の交流園"},"geometry":{"type":"Point","coordinates":[139.62794,35.65904]}},{"type":"Feature","properties":{"id":"landmark-820360466","name":"大松寺"},"geometry":{"type":"Point","coordinates":[139.74113,35.64752]}},{"type":"Feature","properties":{"id":"landmark-820360469","name":"宝生院"},"geometry":{"type":"Point","coordinates":[139.74058,35.64671]}},{"type":"Feature","properties":{"id":"landmark-820360478","name":"西藏院"},"geometry":{"type":"Point","coordinates":[139.74091,35.64723]}},{"type":"Feature","properties":{"id":"landmark-820849494","name":"旧新橋停車場鉄道歴史展示室"},"geometry":{"type":"Point","coordinates":[139.76162,35.66595]}},{"type":"Feature","properties":{"id":"landmark-824017756","name":"小仏峠"},"geometry":{"type":"Point","coordinates":[139.21683,35.63624]}},{"type":"Feature","properties":{"id":"landmark-824532733","name":"明治天皇小佛峠御小休所阯及御野立所"},"geometry":{"type":"Point","coordinates":[139.21679,35.63571]}},{"type":"Feature","properties":{"id":"landmark-831019946","name":"「三鷹事件」五十年碑"},"geometry":{"type":"Point","coordinates":[139.55105,35.7015]}},{"type":"Feature","properties":{"id":"landmark-831194625","name":"禅林寺"},"geometry":{"type":"Point","coordinates":[139.5599,35.69435]}},{"type":"Feature","properties":{"id":"landmark-841934372","name":"高幡不動尊"},"geometry":{"type":"Point","coordinates":[139.41088,35.66222]}},{"type":"Feature","properties":{"id":"landmark-843098167","name":"居木神社"},"geometry":{"type":"Point","coordinates":[139.72526,35.61985]}},{"type":"Feature","properties":{"id":"landmark-849454032","name":"六所神社"},"geometry":{"type":"Point","coordinates":[139.64323,35.65852]}},{"type":"Feature","properties":{"id":"landmark-860337530","name":"大安楽寺"},"geometry":{"type":"Point","coordinates":[139.77803,35.69085]}},{"type":"Feature","properties":{"id":"landmark-861092868","name":"D51 862"},"geometry":{"type":"Point","coordinates":[139.44418,35.55188]}},{"type":"Feature","properties":{"id":"landmark-873842087","name":"円乗院"},"geometry":{"type":"Point","coordinates":[139.66092,35.65542]}},{"type":"Feature","properties":{"id":"landmark-892732726","name":"千住本氷川神社"},"geometry":{"type":"Point","coordinates":[139.80225,35.75253]}},{"type":"Feature","properties":{"id":"landmark-906795394","name":"兜塚古墳"},"geometry":{"type":"Point","coordinates":[139.56991,35.63418]}},{"type":"Feature","properties":{"id":"landmark-916653859","name":"海雲寺"},"geometry":{"type":"Point","coordinates":[139.63762,35.69637]}},{"type":"Feature","properties":{"id":"landmark-916655081","name":"天桂寺"},"geometry":{"type":"Point","coordinates":[139.63702,35.69711]}},{"type":"Feature","properties":{"id":"landmark-919282252","name":"東京シティビュー"},"geometry":{"type":"Point","coordinates":[139.72906,35.66043]}},{"type":"Feature","properties":{"id":"landmark-943287591","name":"トリックアート美術館"},"geometry":{"type":"Point","coordinates":[139.2712,35.63301]}},{"type":"Feature","properties":{"id":"landmark-944707079","name":"岩屋大師"},"geometry":{"type":"Point","coordinates":[139.26039,35.62851]}},{"type":"Feature","properties":{"id":"landmark-945081916","name":"高尾山　大見晴園地"},"geometry":{"type":"Point","coordinates":[139.24316,35.62458]}},{"type":"Feature","properties":{"id":"landmark-961344405","name":"清瀬保二居宅跡"},"geometry":{"type":"Point","coordinates":[139.60572,35.6375]}},{"type":"Feature","properties":{"id":"landmark-978844927","name":"町田市民文学館ことばらんど"},"geometry":{"type":"Point","coordinates":[139.45155,35.54256]}},{"type":"Feature","properties":{"id":"landmark-988746691","name":"吉祥院"},"geometry":{"type":"Point","coordinates":[139.61345,35.68077]}},{"type":"Feature","properties":{"id":"landmark-988763541","name":"昭和館"},"geometry":{"type":"Point","coordinates":[139.75091,35.69511]}},{"type":"Feature","properties":{"id":"landmark-994266787","name":"延命院"},"geometry":{"type":"Point","coordinates":[139.73288,35.64831]}},{"type":"Feature","properties":{"id":"landmark-994274642","name":"若松寺"},"geometry":{"type":"Point","coordinates":[139.73249,35.64914]}},{"type":"Feature","properties":{"id":"landmark-1000792259","name":"七辻"},"geometry":{"type":"Point","coordinates":[139.72262,35.55203]}},{"type":"Feature","properties":{"id":"landmark-1025845868","name":"日比谷神社"},"geometry":{"type":"Point","coordinates":[139.7583,35.6634]}},{"type":"Feature","properties":{"id":"landmark-1026509610","name":"中道寺"},"geometry":{"type":"Point","coordinates":[139.6195,35.69653]}},{"type":"Feature","properties":{"id":"landmark-1033221825","name":"榧寺"},"geometry":{"type":"Point","coordinates":[139.79227,35.70526]}},{"type":"Feature","properties":{"id":"landmark-1035484295","name":"西照寺"},"geometry":{"type":"Point","coordinates":[139.58479,35.65822]}},{"type":"Feature","properties":{"id":"landmark-1045010436","name":"サレジオ教会"},"geometry":{"type":"Point","coordinates":[139.68699,35.61992]}},{"type":"Feature","properties":{"id":"landmark-1056757093","name":"向井潤吉アトリエ館"},"geometry":{"type":"Point","coordinates":[139.65567,35.63559]}},{"type":"Feature","properties":{"id":"landmark-1069536940","name":"今川宝珠殿"},"geometry":{"type":"Point","coordinates":[139.607,35.7164]}},{"type":"Feature","properties":{"id":"landmark-1076647709","name":"御嶽神社"},"geometry":{"type":"Point","coordinates":[139.6748,35.75748]}},{"type":"Feature","properties":{"id":"landmark-1077780842","name":"ガンダム像"},"geometry":{"type":"Point","coordinates":[139.60354,35.72503]}},{"type":"Feature","properties":{"id":"landmark-1080054340","name":"阿蘇神社"},"geometry":{"type":"Point","coordinates":[139.29796,35.76288]}},{"type":"Feature","properties":{"id":"landmark-1116460129","name":"高田馬場再開発記念碑"},"geometry":{"type":"Point","coordinates":[139.70467,35.71329]}},{"type":"Feature","properties":{"id":"landmark-1125911392","name":"谷原延命地蔵"},"geometry":{"type":"Point","coordinates":[139.6233,35.75054]}},{"type":"Feature","properties":{"id":"landmark-1130419682","name":"平蔵地蔵尊"},"geometry":{"type":"Point","coordinates":[139.74385,35.60895]}},{"type":"Feature","properties":{"id":"landmark-1138559743","name":"光明寺"},"geometry":{"type":"Point","coordinates":[139.78561,35.71035]}},{"type":"Feature","properties":{"id":"landmark-1138559752","name":"真照寺"},"geometry":{"type":"Point","coordinates":[139.785,35.71215]}},{"type":"Feature","properties":{"id":"landmark-1138559753","name":"誓教寺"},"geometry":{"type":"Point","coordinates":[139.78533,35.70979]}},{"type":"Feature","properties":{"id":"landmark-1138559755","name":"真宗 浄正寺"},"geometry":{"type":"Point","coordinates":[139.7848,35.71226]}},{"type":"Feature","properties":{"id":"landmark-1138633157","name":"曹洞宗 曹源寺"},"geometry":{"type":"Point","coordinates":[139.78643,35.7154]}},{"type":"Feature","properties":{"id":"landmark-1139070646","name":"東本願寺"},"geometry":{"type":"Point","coordinates":[139.78952,35.71172]}},{"type":"Feature","properties":{"id":"landmark-1140870596","name":"宗清寺"},"geometry":{"type":"Point","coordinates":[139.72247,35.70625]}},{"type":"Feature","properties":{"id":"landmark-1140870605","name":"亀鶴山 易行院 誓閑寺"},"geometry":{"type":"Point","coordinates":[139.71936,35.7049]}},{"type":"Feature","properties":{"id":"landmark-1145077203","name":"浄土宗 龍原寺"},"geometry":{"type":"Point","coordinates":[139.73979,35.65254]}},{"type":"Feature","properties":{"id":"landmark-1145077215","name":"綱生山 当光寺"},"geometry":{"type":"Point","coordinates":[139.73907,35.6526]}},{"type":"Feature","properties":{"id":"landmark-1145077234","name":"常祐山 圓徳寺"},"geometry":{"type":"Point","coordinates":[139.73742,35.65288]}},{"type":"Feature","properties":{"id":"landmark-1145149925","name":"芝公園十時体地蔵尊"},"geometry":{"type":"Point","coordinates":[139.74712,35.65931]}},{"type":"Feature","properties":{"id":"landmark-1148543002","name":"王子街道"},"geometry":{"type":"Point","coordinates":[139.77365,35.72673]}},{"type":"Feature","properties":{"id":"landmark-1149052369","name":"寳性寺"},"geometry":{"type":"Point","coordinates":[139.61722,35.6542]}},{"type":"Feature","properties":{"id":"landmark-1150191580","name":"福禄寿"},"geometry":{"type":"Point","coordinates":[139.78277,35.72005]}},{"type":"Feature","properties":{"id":"landmark-1161467723","name":"善福寺"},"geometry":{"type":"Point","coordinates":[139.59122,35.71821]}},{"type":"Feature","properties":{"id":"landmark-1163038923","name":"香取神社"},"geometry":{"type":"Point","coordinates":[139.82549,35.70442]}},{"type":"Feature","properties":{"id":"landmark-1177042992","name":"宗源寺"},"geometry":{"type":"Point","coordinates":[139.72533,35.70592]}},{"type":"Feature","properties":{"id":"landmark-1177043013","name":"龍善寺"},"geometry":{"type":"Point","coordinates":[139.7234,35.70575]}},{"type":"Feature","properties":{"id":"landmark-1177156758","name":"NHKスタジオパーク"},"geometry":{"type":"Point","coordinates":[139.69659,35.66511]}},{"type":"Feature","properties":{"id":"landmark-1207349187","name":"道路開鑿碑"},"geometry":{"type":"Point","coordinates":[139.49794,35.60851]}},{"type":"Feature","properties":{"id":"landmark-1213571419","name":"境妙寺"},"geometry":{"type":"Point","coordinates":[139.67962,35.71223]}},{"type":"Feature","properties":{"id":"landmark-1213571422","name":"宝泉寺"},"geometry":{"type":"Point","coordinates":[139.67883,35.71195]}},{"type":"Feature","properties":{"id":"landmark-1213571425","name":"萬昌院功運寺"},"geometry":{"type":"Point","coordinates":[139.67872,35.71248]}},{"type":"Feature","properties":{"id":"landmark-1213571435","name":"願正寺"},"geometry":{"type":"Point","coordinates":[139.68009,35.71223]}},{"type":"Feature","properties":{"id":"landmark-1216112185","name":"上高田 氷川神社"},"geometry":{"type":"Point","coordinates":[139.67631,35.71488]}},{"type":"Feature","properties":{"id":"landmark-1216145567","name":"沼袋氷川神社"},"geometry":{"type":"Point","coordinates":[139.66685,35.71953]}},{"type":"Feature","properties":{"id":"landmark-1223180531","name":"大乗院"},"geometry":{"type":"Point","coordinates":[139.56899,35.75592]}},{"type":"Feature","properties":{"id":"landmark-1224322827","name":"信願山 法融寺"},"geometry":{"type":"Point","coordinates":[139.58478,35.7258]}},{"type":"Feature","properties":{"id":"landmark-1240105704","name":"三宿神社"},"geometry":{"type":"Point","coordinates":[139.67424,35.6509]}},{"type":"Feature","properties":{"id":"landmark-1248297444","name":"Zemaitis Museum"},"geometry":{"type":"Point","coordinates":[139.77163,35.69376]}},{"type":"Feature","properties":{"id":"landmark-1248442028","name":"妙高寺"},"geometry":{"type":"Point","coordinates":[139.59832,35.67568]}},{"type":"Feature","properties":{"id":"landmark-1302850583","name":"砧区画整理記念碑"},"geometry":{"type":"Point","coordinates":[139.61203,35.64086]}},{"type":"Feature","properties":{"id":"landmark-1327332423","name":"京橋の親柱"},"geometry":{"type":"Point","coordinates":[139.76871,35.67496]}},{"type":"Feature","properties":{"id":"landmark-1327332425","name":"江戸歌舞伎発祥の地"},"geometry":{"type":"Point","coordinates":[139.76888,35.67532]}},{"type":"Feature","properties":{"id":"landmark-1350269516","name":"日本銀行金融研究所貨幣博物館"},"geometry":{"type":"Point","coordinates":[139.7716,35.68544]}},{"type":"Feature","properties":{"id":"landmark-1367460936","name":"日本橋魚河岸発祥の地"},"geometry":{"type":"Point","coordinates":[139.77485,35.68434]}},{"type":"Feature","properties":{"id":"landmark-1376774653","name":"カトリック神田教会"},"geometry":{"type":"Point","coordinates":[139.75757,35.69942]}},{"type":"Feature","properties":{"id":"landmark-1385629844","name":"小寳稲荷"},"geometry":{"type":"Point","coordinates":[139.75205,35.66893]}},{"type":"Feature","properties":{"id":"landmark-1394715627","name":"Carrot Tower 26F"},"geometry":{"type":"Point","coordinates":[139.66933,35.6438]}},{"type":"Feature","properties":{"id":"landmark-1405093228","name":"待乳山聖天"},"geometry":{"type":"Point","coordinates":[139.80298,35.71735]}},{"type":"Feature","properties":{"id":"landmark-1417894918","name":"野見宿禰神社"},"geometry":{"type":"Point","coordinates":[139.80131,35.69695]}},{"type":"Feature","properties":{"id":"landmark-1417894959","name":"御石様"},"geometry":{"type":"Point","coordinates":[139.73273,35.75649]}},{"type":"Feature","properties":{"id":"landmark-1420763792","name":"あきる野市五日市郷土館"},"geometry":{"type":"Point","coordinates":[139.21696,35.7284]}},{"type":"Feature","properties":{"id":"landmark-1420763962","name":"くにたち郷土文化館"},"geometry":{"type":"Point","coordinates":[139.43259,35.67898]}},{"type":"Feature","properties":{"id":"landmark-1420764126","name":"たましん歴史・美術館"},"geometry":{"type":"Point","coordinates":[139.44621,35.69803]}},{"type":"Feature","properties":{"id":"landmark-1420764135","name":"ちひろ美術館・東京"},"geometry":{"type":"Point","coordinates":[139.60508,35.72848]}},{"type":"Feature","properties":{"id":"landmark-1420764431","name":"ふれあい下水道館"},"geometry":{"type":"Point","coordinates":[139.46462,35.72017]}},{"type":"Feature","properties":{"id":"landmark-1420765070","name":"エース世界のカバン博物館"},"geometry":{"type":"Point","coordinates":[139.79531,35.70806]}},{"type":"Feature","properties":{"id":"landmark-1420765210","name":"セイコーミュージアム"},"geometry":{"type":"Point","coordinates":[139.81326,35.72673]}},{"type":"Feature","properties":{"id":"landmark-1420765213","name":"センチュリーミュージアム"},"geometry":{"type":"Point","coordinates":[139.75976,35.70253]}},{"type":"Feature","properties":{"id":"landmark-1420765316","name":"ブレーキ博物館"},"geometry":{"type":"Point","coordinates":[139.80942,35.69414]}},{"type":"Feature","properties":{"id":"landmark-1420765386","name":"ユニセフハウス"},"geometry":{"type":"Point","coordinates":[139.73305,35.62793]}},{"type":"Feature","properties":{"id":"landmark-1420765471","name":"三井記念美術館"},"geometry":{"type":"Point","coordinates":[139.77307,35.68684]}},{"type":"Feature","properties":{"id":"landmark-1420766065","name":"世田谷区立郷土資料館"},"geometry":{"type":"Point","coordinates":[139.64722,35.64146]}},{"type":"Feature","properties":{"id":"landmark-1420766084","name":"世田谷文学館"},"geometry":{"type":"Point","coordinates":[139.60887,35.66692]}},{"type":"Feature","properties":{"id":"landmark-1420766113","name":"世田谷美術館"},"geometry":{"type":"Point","coordinates":[139.6222,35.63162]}},{"type":"Feature","properties":{"id":"landmark-1420766180","name":"中央区立築地社会教育会館・郷土資料館"},"geometry":{"type":"Point","coordinates":[139.76808,35.66649]}},{"type":"Feature","properties":{"id":"landmark-1420766408","name":"中近東文化センター付属博物館"},"geometry":{"type":"Point","coordinates":[139.53389,35.6888]}},{"type":"Feature","properties":{"id":"landmark-1420766554","name":"久米美術館"},"geometry":{"type":"Point","coordinates":[139.71476,35.63455]}},{"type":"Feature","properties":{"id":"landmark-1420766636","name":"五島美術館"},"geometry":{"type":"Point","coordinates":[139.63536,35.61244]}},{"type":"Feature","properties":{"id":"landmark-1420766922","name":"伊豆大島火山博物館"},"geometry":{"type":"Point","coordinates":[139.36,34.74401]}},{"type":"Feature","properties":{"id":"landmark-1420766948","name":"佐藤美術館"},"geometry":{"type":"Point","coordinates":[139.71498,35.68168]}},{"type":"Feature","properties":{"id":"landmark-1420767194","name":"光が丘美術館"},"geometry":{"type":"Point","coordinates":[139.63241,35.75955]}},{"type":"Feature","properties":{"id":"landmark-1420767670","name":"八王子市こども科学館（サイエンスドーム八王子）"},"geometry":{"type":"Point","coordinates":[139.32784,35.66477]}},{"type":"Feature","properties":{"id":"landmark-1420767886","name":"凧の博物館"},"geometry":{"type":"Point","coordinates":[139.77516,35.68443]}},{"type":"Feature","properties":{"id":"landmark-1420767888","name":"刀剣博物館"},"geometry":{"type":"Point","coordinates":[139.69067,35.68149]}},{"type":"Feature","properties":{"id":"landmark-1420767889","name":"切手の博物館"},"geometry":{"type":"Point","coordinates":[139.70578,35.71827]}},{"type":"Feature","properties":{"id":"landmark-1420770189","name":"千代田区立四番町図書館"},"geometry":{"type":"Point","coordinates":[139.7416,35.69045]}},{"type":"Feature","properties":{"id":"landmark-1420770260","name":"千秋文庫博物館"},"geometry":{"type":"Point","coordinates":[139.74649,35.69326]}},{"type":"Feature","properties":{"id":"landmark-1420770935","name":"印刷博物館"},"geometry":{"type":"Point","coordinates":[139.74144,35.70916]}},{"type":"Feature","properties":{"id":"landmark-1420771074","name":"古代オリエント博物館"},"geometry":{"type":"Point","coordinates":[139.72097,35.72873]}},{"type":"Feature","properties":{"id":"landmark-1420771079","name":"古賀政男音楽博物館"},"geometry":{"type":"Point","coordinates":[139.68001,35.6677]}},{"type":"Feature","properties":{"id":"landmark-1420771103","name":"台東区立書道博物館"},"geometry":{"type":"Point","coordinates":[139.77654,35.72466]}},{"type":"Feature","properties":{"id":"landmark-1420771159","name":"吉川英治記念館"},"geometry":{"type":"Point","coordinates":[139.2131,35.79631]}},{"type":"Feature","properties":{"id":"landmark-1420771165","name":"吉田苞竹記念会館"},"geometry":{"type":"Point","coordinates":[139.74171,35.66365]}},{"type":"Feature","properties":{"id":"landmark-1420771385","name":"唐澤博物館"},"geometry":{"type":"Point","coordinates":[139.66257,35.73303]}},{"type":"Feature","properties":{"id":"landmark-1420771577","name":"国分寺市文化財保存館"},"geometry":{"type":"Point","coordinates":[139.4728,35.69387]}},{"type":"Feature","properties":{"id":"landmark-1420771578","name":"国分寺市文化財資料展示室"},"geometry":{"type":"Point","coordinates":[139.46988,35.69095]}},{"type":"Feature","properties":{"id":"landmark-1420771579","name":"国分寺市民俗資料室"},"geometry":{"type":"Point","coordinates":[139.48519,35.70678]}},{"type":"Feature","properties":{"id":"landmark-1420771652","name":"国立印刷局博物館"},"geometry":{"type":"Point","coordinates":[139.72927,35.69496]}},{"type":"Feature","properties":{"id":"landmark-1420771752","name":"國學院大學博物館"},"geometry":{"type":"Point","coordinates":[139.7112,35.65622]}},{"type":"Feature","properties":{"id":"landmark-1420772465","name":"多摩六都科学館"},"geometry":{"type":"Point","coordinates":[139.52304,35.73455]}},{"type":"Feature","properties":{"id":"landmark-1420772919","name":"大倉集古館"},"geometry":{"type":"Point","coordinates":[139.74322,35.66692]}},{"type":"Feature","properties":{"id":"landmark-1420772944","name":"大名時計博物館"},"geometry":{"type":"Point","coordinates":[139.76618,35.72129]}},{"type":"Feature","properties":{"id":"landmark-1420773057","name":"大国魂神社宝物殿"},"geometry":{"type":"Point","coordinates":[139.47859,35.66813]}},{"type":"Feature","properties":{"id":"landmark-1420774099","name":"大田区多摩川台公園古墳展示室"},"geometry":{"type":"Point","coordinates":[139.66694,35.59013]}},{"type":"Feature","properties":{"id":"landmark-1420774303","name":"大田区立郷土博物館"},"geometry":{"type":"Point","coordinates":[139.71067,35.58853]}},{"type":"Feature","properties":{"id":"landmark-1420774314","name":"大田区立龍子記念館"},"geometry":{"type":"Point","coordinates":[139.71562,35.58234]}},{"type":"Feature","properties":{"id":"landmark-1420774587","name":"大谷美術館"},"geometry":{"type":"Point","coordinates":[139.74578,35.74311]}},{"type":"Feature","properties":{"id":"landmark-1420774624","name":"天理ギャラリー"},"geometry":{"type":"Point","coordinates":[139.76442,35.69178]}},{"type":"Feature","properties":{"id":"landmark-1420774658","name":"太田記念美術館"},"geometry":{"type":"Point","coordinates":[139.7049,35.6694]}},{"type":"Feature","properties":{"id":"landmark-1420774661","name":"太皷館"},"geometry":{"type":"Point","coordinates":[139.79178,35.71182]}},{"type":"Feature","properties":{"id":"landmark-1420774970","name":"実践女子学園香雪記念資料館"},"geometry":{"type":"Point","coordinates":[139.39022,35.67144]}},{"type":"Feature","properties":{"id":"landmark-1420775065","name":"宮城道雄記念館"},"geometry":{"type":"Point","coordinates":[139.73684,35.69976]}},{"type":"Feature","properties":{"id":"landmark-1420775074","name":"家具の博物館"},"geometry":{"type":"Point","coordinates":[139.37797,35.71367]}},{"type":"Feature","properties":{"id":"landmark-1420776990","name":"山崎記念中野区立歴史民俗資料館"},"geometry":{"type":"Point","coordinates":[139.66499,35.72432]}},{"type":"Feature","properties":{"id":"landmark-1420779754","name":"平和祈念展示資料館"},"geometry":{"type":"Point","coordinates":[139.69251,35.69126]}},{"type":"Feature","properties":{"id":"landmark-1420780101","name":"弥生美術館・竹久夢二美術館"},"geometry":{"type":"Point","coordinates":[139.76348,35.7149]}},{"type":"Feature","properties":{"id":"landmark-1420780206","name":"徳蔵寺板碑保存館"},"geometry":{"type":"Point","coordinates":[139.46811,35.77044]}},{"type":"Feature","properties":{"id":"landmark-1420780290","name":"YEBISU BREWERY TOKYO"},"geometry":{"type":"Point","coordinates":[139.71454,35.64309]}},{"type":"Feature","properties":{"id":"landmark-1420780469","name":"成蹊学園史料館"},"geometry":{"type":"Point","coordinates":[139.57321,35.71044]}},{"type":"Feature","properties":{"id":"landmark-1420780494","name":"戸栗美術館"},"geometry":{"type":"Point","coordinates":[139.6928,35.66144]}},{"type":"Feature","properties":{"id":"landmark-1420780641","name":"文京ふるさと歴史館"},"geometry":{"type":"Point","coordinates":[139.75658,35.70798]}},{"type":"Feature","properties":{"id":"landmark-1420780738","name":"文化学園服飾博物館"},"geometry":{"type":"Point","coordinates":[139.69501,35.68632]}},{"type":"Feature","properties":{"id":"landmark-1420780821","name":"新宿歴史博物館"},"geometry":{"type":"Point","coordinates":[139.72563,35.69001]}},{"type":"Feature","properties":{"id":"landmark-1420780833","name":"新宿美術館"},"geometry":{"type":"Point","coordinates":[139.71074,35.6911]}},{"type":"Feature","properties":{"id":"landmark-1420780862","name":"新島村博物館"},"geometry":{"type":"Point","coordinates":[139.25922,34.38153]}},{"type":"Feature","properties":{"id":"landmark-1420780980","name":"日本カメラ博物館"},"geometry":{"type":"Point","coordinates":[139.74285,35.68606]}},{"type":"Feature","properties":{"id":"landmark-1420781050","name":"日本女子大学成瀬記念館"},"geometry":{"type":"Point","coordinates":[139.71988,35.71632]}},{"type":"Feature","properties":{"id":"landmark-1420781066","name":"日本書道美術館"},"geometry":{"type":"Point","coordinates":[139.69019,35.75966]}},{"type":"Feature","properties":{"id":"landmark-1420781094","name":"日本民藝館"},"geometry":{"type":"Point","coordinates":[139.67922,35.66085]}},{"type":"Feature","properties":{"id":"landmark-1420781262","name":"日野市郷土資料館"},"geometry":{"type":"Point","coordinates":[139.41149,35.65248]}},{"type":"Feature","properties":{"id":"landmark-1420781297","name":"早稲田大学坪内博士記念演劇博物館"},"geometry":{"type":"Point","coordinates":[139.71955,35.70998]}},{"type":"Feature","properties":{"id":"landmark-1420781298","name":"早稲田大学會津八一記念博物館"},"geometry":{"type":"Point","coordinates":[139.72036,35.70855]}},{"type":"Feature","properties":{"id":"landmark-1420781347","name":"明治大学博物館"},"geometry":{"type":"Point","coordinates":[139.76215,35.6987]}},{"type":"Feature","properties":{"id":"landmark-1420781405","name":"昭和レトロ商品博物館"},"geometry":{"type":"Point","coordinates":[139.26047,35.78872]}},{"type":"Feature","properties":{"id":"landmark-1420781418","name":"昭和天皇記念館"},"geometry":{"type":"Point","coordinates":[139.40786,35.70333]}},{"type":"Feature","properties":{"id":"landmark-1420781419","name":"昭和女子大学光葉博物館"},"geometry":{"type":"Point","coordinates":[139.67702,35.64352]}},{"type":"Feature","properties":{"id":"landmark-1420782231","name":"杉野学園衣裳博物館"},"geometry":{"type":"Point","coordinates":[139.71586,35.63074]}},{"type":"Feature","properties":{"id":"landmark-1420782243","name":"村内美術館"},"geometry":{"type":"Point","coordinates":[139.33674,35.67969]}},{"type":"Feature","properties":{"id":"landmark-1420782618","name":"東京オペラシティアートギャラリー"},"geometry":{"type":"Point","coordinates":[139.68676,35.683]}},{"type":"Feature","properties":{"id":"landmark-1420783697","name":"東京大空襲・戦災資料センター"},"geometry":{"type":"Point","coordinates":[139.82226,35.68174]}},{"type":"Feature","properties":{"id":"landmark-1420783718","name":"東京女子医科大学史料室・吉岡彌生記念室"},"geometry":{"type":"Point","coordinates":[139.72029,35.69719]}},{"type":"Feature","properties":{"id":"landmark-1420783861","name":"東京家政大学博物館"},"geometry":{"type":"Point","coordinates":[139.7213,35.75515]}},{"type":"Feature","properties":{"id":"landmark-1420783928","name":"東京家政学院生活文化博物館"},"geometry":{"type":"Point","coordinates":[139.31176,35.6095]}},{"type":"Feature","properties":{"id":"landmark-1420783951","name":"東京富士美術館"},"geometry":{"type":"Point","coordinates":[139.32945,35.68638]}},{"type":"Feature","properties":{"id":"landmark-1420784622","name":"東京海洋大学海洋科学部附属水産資料館"},"geometry":{"type":"Point","coordinates":[139.74724,35.62689]}},{"type":"Feature","properties":{"id":"landmark-1420784678","name":"東京消防庁消防防災資料センター消防博物館"},"geometry":{"type":"Point","coordinates":[139.71994,35.68814]}},{"type":"Feature","properties":{"id":"landmark-1420785063","name":"東京藝術大学大学美術館"},"geometry":{"type":"Point","coordinates":[139.77193,35.71919]}},{"type":"Feature","properties":{"id":"landmark-1420785072","name":"東京農工大学工学部附属繊維博物館"},"geometry":{"type":"Point","coordinates":[139.51881,35.69808]}},{"type":"Feature","properties":{"id":"landmark-1420785102","name":"東京農業大学「食と農」の博物館"},"geometry":{"type":"Point","coordinates":[139.63178,35.63898]}},{"type":"Feature","properties":{"id":"landmark-1420785386","name":"東京都水道歴史館"},"geometry":{"type":"Point","coordinates":[139.7605,35.70331]}},{"type":"Feature","properties":{"id":"landmark-1420785523","name":"東京都立芸術高等学校美術館"},"geometry":{"type":"Point","coordinates":[139.68462,35.65451]}},{"type":"Feature","properties":{"id":"landmark-1420785725","name":"東大和市立郷土博物館"},"geometry":{"type":"Point","coordinates":[139.4229,35.75516]}},{"type":"Feature","properties":{"id":"landmark-1420785817","name":"東村山ふるさと歴史館"},"geometry":{"type":"Point","coordinates":[139.46635,35.76667]}},{"type":"Feature","properties":{"id":"landmark-1420785912","name":"東武博物館"},"geometry":{"type":"Point","coordinates":[139.81898,35.72346]}},{"type":"Feature","properties":{"id":"landmark-1420786016","name":"パナソニック汐留美術館"},"geometry":{"type":"Point","coordinates":[139.76188,35.66583]}},{"type":"Feature","properties":{"id":"landmark-1420786033","name":"松岡美術館"},"geometry":{"type":"Point","coordinates":[139.72181,35.64002]}},{"type":"Feature","properties":{"id":"landmark-1420786038","name":"松月院"},"geometry":{"type":"Point","coordinates":[139.64757,35.78126]}},{"type":"Feature","properties":{"id":"landmark-1420786097","name":"板橋区立教育科学館"},"geometry":{"type":"Point","coordinates":[139.67962,35.76345]}},{"type":"Feature","properties":{"id":"landmark-1420786111","name":"板橋区立郷土資料館"},"geometry":{"type":"Point","coordinates":[139.64321,35.7855]}},{"type":"Feature","properties":{"id":"landmark-1420786660","name":"森美術館"},"geometry":{"type":"Point","coordinates":[139.72926,35.66043]}},{"type":"Feature","properties":{"id":"landmark-1420786798","name":"次大夫堀公園民家園"},"geometry":{"type":"Point","coordinates":[139.59956,35.63066]}},{"type":"Feature","properties":{"id":"landmark-1420786848","name":"武蔵村山市立歴史民俗資料館"},"geometry":{"type":"Point","coordinates":[139.38729,35.76236]}},{"type":"Feature","properties":{"id":"landmark-1420786887","name":"武蔵野市立吉祥寺美術館"},"geometry":{"type":"Point","coordinates":[139.57914,35.70482]}},{"type":"Feature","properties":{"id":"landmark-1420787066","name":"民音音楽博物館"},"geometry":{"type":"Point","coordinates":[139.71938,35.68233]}},{"type":"Feature","properties":{"id":"landmark-1420787554","name":"江戸川区郷土資料室"},"geometry":{"type":"Point","coordinates":[139.86629,35.70606]}},{"type":"Feature","properties":{"id":"landmark-1420787682","name":"江東区中川船番所資料館"},"geometry":{"type":"Point","coordinates":[139.84636,35.68758]}},{"type":"Feature","properties":{"id":"landmark-1420787694","name":"江東区深川江戸資料館"},"geometry":{"type":"Point","coordinates":[139.80055,35.68105]}},{"type":"Feature","properties":{"id":"landmark-1420787712","name":"江東区芭蕉記念館"},"geometry":{"type":"Point","coordinates":[139.79409,35.68613]}},{"type":"Feature","properties":{"id":"landmark-1420787748","name":"霊寶殿"},"geometry":{"type":"Point","coordinates":[139.70472,35.57866]}},{"type":"Feature","properties":{"id":"landmark-1420787831","name":"泉屋博古館東京"},"geometry":{"type":"Point","coordinates":[139.74107,35.66503]}},{"type":"Feature","properties":{"id":"landmark-1420789248","name":"港区立港郷土資料館"},"geometry":{"type":"Point","coordinates":[139.74521,35.64707]}},{"type":"Feature","properties":{"id":"landmark-1420789331","name":"櫛かんざし美術館"},"geometry":{"type":"Point","coordinates":[139.19677,35.80332]}},{"type":"Feature","properties":{"id":"landmark-1420789338","name":"熊谷守一美術館"},"geometry":{"type":"Point","coordinates":[139.69087,35.73374]}},{"type":"Feature","properties":{"id":"landmark-1420789431","name":"物流博物館"},"geometry":{"type":"Point","coordinates":[139.73231,35.6291]}},{"type":"Feature","properties":{"id":"landmark-1420789601","name":"国立映画アーカイブ"},"geometry":{"type":"Point","coordinates":[139.77066,35.67557]}},{"type":"Feature","properties":{"id":"landmark-1420790123","name":"田端文士村記念館"},"geometry":{"type":"Point","coordinates":[139.75926,35.73847]}},{"type":"Feature","properties":{"id":"landmark-1420790193","name":"旧町田市立博物館"},"geometry":{"type":"Point","coordinates":[139.45119,35.56741]}},{"type":"Feature","properties":{"id":"landmark-1420790197","name":"町田市立 自由民権資料館"},"geometry":{"type":"Point","coordinates":[139.45324,35.58887]}},{"type":"Feature","properties":{"id":"landmark-1420790339","name":"畠山記念館"},"geometry":{"type":"Point","coordinates":[139.72694,35.63224]}},{"type":"Feature","properties":{"id":"landmark-1420790403","name":"皮革産業資料館"},"geometry":{"type":"Point","coordinates":[139.80823,35.72404]}},{"type":"Feature","properties":{"id":"landmark-1420790484","name":"目黒寄生虫館"},"geometry":{"type":"Point","coordinates":[139.70667,35.6317]}},{"type":"Feature","properties":{"id":"landmark-1420790652","name":"相撲博物館"},"geometry":{"type":"Point","coordinates":[139.79324,35.69727]}},{"type":"Feature","properties":{"id":"landmark-1420792647","name":"福生市郷土資料室"},"geometry":{"type":"Point","coordinates":[139.33737,35.73214]}},{"type":"Feature","properties":{"id":"landmark-1420795502","name":"立川市歴史民俗資料館"},"geometry":{"type":"Point","coordinates":[139.38993,35.69695]}},{"type":"Feature","properties":{"id":"landmark-1420795772","name":"第五福竜丸展示館"},"geometry":{"type":"Point","coordinates":[139.82635,35.65096]}},{"type":"Feature","properties":{"id":"landmark-1420796044","name":"練馬区立美術館"},"geometry":{"type":"Point","coordinates":[139.63615,35.73703]}},{"type":"Feature","properties":{"id":"landmark-1420796057","name":"練馬区郷土資料室"},"geometry":{"type":"Point","coordinates":[139.5994,35.73641]}},{"type":"Feature","properties":{"id":"landmark-1420796331","name":"羽村市郷土博物館"},"geometry":{"type":"Point","coordinates":[139.30346,35.75512]}},{"type":"Feature","properties":{"id":"landmark-1420796470","name":"船の科学館"},"geometry":{"type":"Point","coordinates":[139.7723,35.62022]}},{"type":"Feature","properties":{"id":"landmark-1420796583","name":"草月美術館"},"geometry":{"type":"Point","coordinates":[139.72931,35.67408]}},{"type":"Feature","properties":{"id":"landmark-1420796626","name":"荒川区立荒川ふるさと文化館"},"geometry":{"type":"Point","coordinates":[139.79543,35.73747]}},{"type":"Feature","properties":{"id":"landmark-1420797074","name":"菊池寛実記念智美術館"},"geometry":{"type":"Point","coordinates":[139.74461,35.66604]}},{"type":"Feature","properties":{"id":"landmark-1420797158","name":"葛飾区教育資料館"},"geometry":{"type":"Point","coordinates":[139.8642,35.78725]}},{"type":"Feature","properties":{"id":"landmark-1420797177","name":"葛飾区郷土と天文の博物館"},"geometry":{"type":"Point","coordinates":[139.84338,35.75289]}},{"type":"Feature","properties":{"id":"landmark-1420797402","name":"虎屋ギャラリー"},"geometry":{"type":"Point","coordinates":[139.73259,35.67524]}},{"type":"Feature","properties":{"id":"landmark-1420797717","name":"西山美術館"},"geometry":{"type":"Point","coordinates":[139.45442,35.58951]}},{"type":"Feature","properties":{"id":"landmark-1420797958","name":"調布市武者小路実篤記念館"},"geometry":{"type":"Point","coordinates":[139.58133,35.65672]}},{"type":"Feature","properties":{"id":"landmark-1420797985","name":"調布市郷土博物館"},"geometry":{"type":"Point","coordinates":[139.53624,35.64675]}},{"type":"Feature","properties":{"id":"landmark-1420798047","name":"講談社野間記念館"},"geometry":{"type":"Point","coordinates":[139.72503,35.71402]}},{"type":"Feature","properties":{"id":"landmark-1420798090","name":"豊島区立郷土資料館"},"geometry":{"type":"Point","coordinates":[139.70672,35.72767]}},{"type":"Feature","properties":{"id":"landmark-1420798228","name":"賀川豊彦記念松沢資料館"},"geometry":{"type":"Point","coordinates":[139.62595,35.6679]}},{"type":"Feature","properties":{"id":"landmark-1420798495","name":"足立区立郷土博物館"},"geometry":{"type":"Point","coordinates":[139.84144,35.78447]}},{"type":"Feature","properties":{"id":"landmark-1420799298","name":"野口英世記念会館展示室"},"geometry":{"type":"Point","coordinates":[139.71629,35.68375]}},{"type":"Feature","properties":{"id":"landmark-1420799336","name":"野球殿堂博物館"},"geometry":{"type":"Point","coordinates":[139.7529,35.70558]}},{"type":"Feature","properties":{"id":"landmark-1420799355","name":"釣り文化資料館"},"geometry":{"type":"Point","coordinates":[139.71952,35.69087]}},{"type":"Feature","properties":{"id":"landmark-1420799454","name":"長泉院附属現代彫刻美術館"},"geometry":{"type":"Point","coordinates":[139.70305,35.63591]}},{"type":"Feature","properties":{"id":"landmark-1420799460","name":"長谷川町子美術館"},"geometry":{"type":"Point","coordinates":[139.64362,35.62798]}},{"type":"Feature","properties":{"id":"landmark-1420799888","name":"青梅きもの博物館"},"geometry":{"type":"Point","coordinates":[139.2203,35.78792]}},{"type":"Feature","properties":{"id":"landmark-1420799943","name":"青梅市立美術館 青梅市立小島善太郎美術館"},"geometry":{"type":"Point","coordinates":[139.25596,35.78755]}},{"type":"Feature","properties":{"id":"landmark-1420799951","name":"青梅市郷土博物館"},"geometry":{"type":"Point","coordinates":[139.25673,35.78372]}},{"type":"Feature","properties":{"id":"landmark-1420800113","name":"駒澤大学禅文化歴史博物館"},"geometry":{"type":"Point","coordinates":[139.65812,35.6285]}},{"type":"Feature","properties":{"id":"landmark-1420800420","name":"高松宮記念ハンセン病資料館"},"geometry":{"type":"Point","coordinates":[139.50014,35.7677]}},{"type":"Feature","properties":{"id":"landmark-1420800487","name":"高麗博物館"},"geometry":{"type":"Point","coordinates":[139.70364,35.69845]}},{"type":"Feature","properties":{"id":"landmark-1420800621","name":"齋田記念館"},"geometry":{"type":"Point","coordinates":[139.65996,35.65342]}},{"type":"Feature","properties":{"id":"landmark-1420800628","name":"ガスミュージアム"},"geometry":{"type":"Point","coordinates":[139.50041,35.74192]}},{"type":"Feature","properties":{"id":"landmark-1420800632","name":"ＪＲＡ競馬博物館"},"geometry":{"type":"Point","coordinates":[139.48814,35.66625]}},{"type":"Feature","properties":{"id":"landmark-1420800659","name":"Ｏ美術館"},"geometry":{"type":"Point","coordinates":[139.7293,35.62074]}},{"type":"Feature","properties":{"id":"landmark-1439037612","name":"Sky Circus"},"geometry":{"type":"Point","coordinates":[139.71807,35.72944]}},{"type":"Feature","properties":{"id":"landmark-1441129037","name":"マラソン折返し地点"},"geometry":{"type":"Point","coordinates":[139.52556,35.66325]}},{"type":"Feature","properties":{"id":"landmark-1441210558","name":"児玉源太郎の墓"},"geometry":{"type":"Point","coordinates":[139.51562,35.68064]}},{"type":"Feature","properties":{"id":"landmark-1459381843","name":"高勝寺"},"geometry":{"type":"Point","coordinates":[139.48828,35.62578]}},{"type":"Feature","properties":{"id":"landmark-1467901033","name":"志ほあみ地蔵尊"},"geometry":{"type":"Point","coordinates":[139.73995,35.65238]}},{"type":"Feature","properties":{"id":"landmark-1484755100","name":"浅野内匠頭邸跡"},"geometry":{"type":"Point","coordinates":[139.77505,35.66743]}},{"type":"Feature","properties":{"id":"landmark-1484933109","name":"海軍経理学校之碑"},"geometry":{"type":"Point","coordinates":[139.77376,35.66313]}},{"type":"Feature","properties":{"id":"landmark-1484933111","name":"かちどき 橋の資料館"},"geometry":{"type":"Point","coordinates":[139.77366,35.66305]}},{"type":"Feature","properties":{"id":"landmark-1492967574","name":"天神社"},"geometry":{"type":"Point","coordinates":[139.56108,35.75393]}},{"type":"Feature","properties":{"id":"landmark-1501305695","name":"谷保天満宮"},"geometry":{"type":"Point","coordinates":[139.44419,35.67974]}},{"type":"Feature","properties":{"id":"landmark-1510685429","name":"京王れーるらんど"},"geometry":{"type":"Point","coordinates":[139.40461,35.64897]}},{"type":"Feature","properties":{"id":"landmark-1521485050","name":"大昌寺"},"geometry":{"type":"Point","coordinates":[139.39735,35.67778]}},{"type":"Feature","properties":{"id":"landmark-1524674224","name":"土方歳三資料館"},"geometry":{"type":"Point","coordinates":[139.41967,35.66976]}},{"type":"Feature","properties":{"id":"landmark-1529052199","name":"石田寺"},"geometry":{"type":"Point","coordinates":[139.42438,35.66819]}},{"type":"Feature","properties":{"id":"landmark-1534088697","name":"百地ヶ丘"},"geometry":{"type":"Point","coordinates":[139.45904,35.63588]}},{"type":"Feature","properties":{"id":"landmark-1549902438","name":"七倉稲荷神社"},"geometry":{"type":"Point","coordinates":[139.76614,35.71504]}},{"type":"Feature","properties":{"id":"landmark-1551878129","name":"寶昌寺"},"geometry":{"type":"Point","coordinates":[139.63167,35.69195]}},{"type":"Feature","properties":{"id":"landmark-1555877279","name":"浅岡飯炊きの井"},"geometry":{"type":"Point","coordinates":[139.751,35.65791]}},{"type":"Feature","properties":{"id":"landmark-1586672879","name":"原稲荷神社"},"geometry":{"type":"Point","coordinates":[139.84969,35.7358]}},{"type":"Feature","properties":{"id":"landmark-1587597689","name":"小松宮彰仁親王銅像"},"geometry":{"type":"Point","coordinates":[139.77347,35.71538]}},{"type":"Feature","properties":{"id":"landmark-1590837704","name":"大法寺"},"geometry":{"type":"Point","coordinates":[139.85073,35.7033]}},{"type":"Feature","properties":{"id":"landmark-1590837706","name":"成就寺"},"geometry":{"type":"Point","coordinates":[139.8505,35.70367]}},{"type":"Feature","properties":{"id":"landmark-1592970386","name":"杵築神社"},"geometry":{"type":"Point","coordinates":[139.54646,35.6998]}},{"type":"Feature","properties":{"id":"landmark-1596308089","name":"庚申堂"},"geometry":{"type":"Point","coordinates":[139.53954,35.69762]}},{"type":"Feature","properties":{"id":"landmark-1599759577","name":"八幡社"},"geometry":{"type":"Point","coordinates":[139.62145,35.661]}},{"type":"Feature","properties":{"id":"landmark-1600023162","name":"お地蔵様"},"geometry":{"type":"Point","coordinates":[139.75032,35.65509]}},{"type":"Feature","properties":{"id":"landmark-1604916381","name":"三嶋神社"},"geometry":{"type":"Point","coordinates":[139.87169,35.68544]}},{"type":"Feature","properties":{"id":"landmark-1610573439","name":"坂西横穴墓群"},"geometry":{"type":"Point","coordinates":[139.39181,35.67517]}},{"type":"Feature","properties":{"id":"landmark-1611806097","name":"西谷戸横穴墓群"},"geometry":{"type":"Point","coordinates":[139.49339,35.57362]}},{"type":"Feature","properties":{"id":"landmark-1613290626","name":"戦歿者慰霊碑"},"geometry":{"type":"Point","coordinates":[139.5946,35.62848]}},{"type":"Feature","properties":{"id":"landmark-1613290629","name":"戦捷紀念碑"},"geometry":{"type":"Point","coordinates":[139.59457,35.62844]}},{"type":"Feature","properties":{"id":"landmark-1623971579","name":"東大正門"},"geometry":{"type":"Point","coordinates":[139.75966,35.71294]}},{"type":"Feature","properties":{"id":"landmark-1628530481","name":"高徳寺"},"geometry":{"type":"Point","coordinates":[139.71527,35.67232]}},{"type":"Feature","properties":{"id":"landmark-1632894605","name":"六道山展望台"},"geometry":{"type":"Point","coordinates":[139.36814,35.77595]}},{"type":"Feature","properties":{"id":"landmark-1633971756","name":"江戸開城西郷南洲勝海舟会見之地"},"geometry":{"type":"Point","coordinates":[139.74869,35.64727]}},{"type":"Feature","properties":{"id":"landmark-1646657354","name":"智明寺 繁成寺"},"geometry":{"type":"Point","coordinates":[139.72276,35.65879]}},{"type":"Feature","properties":{"id":"landmark-1651573980","name":"伊能忠敬像"},"geometry":{"type":"Point","coordinates":[139.79908,35.67103]}},{"type":"Feature","properties":{"id":"landmark-1656983002","name":"出雲大社東京分祀"},"geometry":{"type":"Point","coordinates":[139.72885,35.66228]}},{"type":"Feature","properties":{"id":"landmark-1657233012","name":"虎柏神社"},"geometry":{"type":"Point","coordinates":[139.26706,35.80265]}},{"type":"Feature","properties":{"id":"landmark-1657971581","name":"第4休憩所"},"geometry":{"type":"Point","coordinates":[139.23968,35.79317]}},{"type":"Feature","properties":{"id":"landmark-1657971598","name":"第3休憩所"},"geometry":{"type":"Point","coordinates":[139.24676,35.79347]}},{"type":"Feature","properties":{"id":"landmark-1666008101","name":"ボードワン博士像"},"geometry":{"type":"Point","coordinates":[139.77411,35.71667]}},{"type":"Feature","properties":{"id":"landmark-1695675145","name":"武蔵国分寺僧寺金堂跡"},"geometry":{"type":"Point","coordinates":[139.47147,35.69196]}},{"type":"Feature","properties":{"id":"landmark-1697842370","name":"勝利八幡神社"},"geometry":{"type":"Point","coordinates":[139.63029,35.66268]}},{"type":"Feature","properties":{"id":"landmark-1712317845","name":"田端神社"},"geometry":{"type":"Point","coordinates":[139.6262,35.69398]}},{"type":"Feature","properties":{"id":"landmark-1714614317","name":"常楽院"},"geometry":{"type":"Point","coordinates":[139.57407,35.6566]}},{"type":"Feature","properties":{"id":"landmark-1715695986","name":"富士フォトギャラリー"},"geometry":{"type":"Point","coordinates":[139.5659,35.6586]}},{"type":"Feature","properties":{"id":"landmark-1727248053","name":"浄運院"},"geometry":{"type":"Point","coordinates":[139.7525,35.65684]}},{"type":"Feature","properties":{"id":"landmark-1730486362","name":"神明社"},"geometry":{"type":"Point","coordinates":[139.60734,35.65035]}},{"type":"Feature","properties":{"id":"landmark-1733357504","name":"目黒区美術館"},"geometry":{"type":"Point","coordinates":[139.70768,35.63493]}},{"type":"Feature","properties":{"id":"landmark-1741077919","name":"桑ハウス"},"geometry":{"type":"Point","coordinates":[139.4018,35.68186]}},{"type":"Feature","properties":{"id":"landmark-1742494349","name":"駒留八幡神社"},"geometry":{"type":"Point","coordinates":[139.66054,35.64112]}},{"type":"Feature","properties":{"id":"landmark-1747212638","name":"元町八幡神社"},"geometry":{"type":"Point","coordinates":[139.47069,35.69399]}},{"type":"Feature","properties":{"id":"landmark-1750503477","name":"三峯神社"},"geometry":{"type":"Point","coordinates":[139.61338,35.64075]}},{"type":"Feature","properties":{"id":"landmark-1751547502","name":"醫王寺"},"geometry":{"type":"Point","coordinates":[139.65246,35.62196]}},{"type":"Feature","properties":{"id":"landmark-1754776529","name":"厳流稲荷社 茶之木稲荷神社"},"geometry":{"type":"Point","coordinates":[139.74639,35.64776]}},{"type":"Feature","properties":{"id":"landmark-1754955959","name":"光源寺"},"geometry":{"type":"Point","coordinates":[139.57101,35.66383]}},{"type":"Feature","properties":{"id":"landmark-1755267516","name":"慈眼禅寺"},"geometry":{"type":"Point","coordinates":[139.7395,35.64539]}},{"type":"Feature","properties":{"id":"landmark-1755267526","name":"願海寺"},"geometry":{"type":"Point","coordinates":[139.74004,35.64549]}},{"type":"Feature","properties":{"id":"landmark-1755355289","name":"荻生徂徠墓"},"geometry":{"type":"Point","coordinates":[139.73737,35.64439]}},{"type":"Feature","properties":{"id":"landmark-1755468281","name":"松田甲斎墓"},"geometry":{"type":"Point","coordinates":[139.73212,35.63874]}},{"type":"Feature","properties":{"id":"landmark-1755998791","name":"樹谷山 正満寺"},"geometry":{"type":"Point","coordinates":[139.73181,35.63713]}},{"type":"Feature","properties":{"id":"landmark-1762202660","name":"牛窪地蔵尊"},"geometry":{"type":"Point","coordinates":[139.67122,35.67533]}},{"type":"Feature","properties":{"id":"landmark-1762202664","name":"道供養塔"},"geometry":{"type":"Point","coordinates":[139.67121,35.67535]}},{"type":"Feature","properties":{"id":"landmark-1763177874","name":"地蔵尊"},"geometry":{"type":"Point","coordinates":[139.65794,35.67091]}},{"type":"Feature","properties":{"id":"landmark-1763344626","name":"穴澤天神社"},"geometry":{"type":"Point","coordinates":[139.5221,35.63276]}},{"type":"Feature","properties":{"id":"landmark-1763805971","name":"区画管理完成記念之碑"},"geometry":{"type":"Point","coordinates":[139.85804,35.6629]}},{"type":"Feature","properties":{"id":"landmark-1766121443","name":"豊鹿嶋神社"},"geometry":{"type":"Point","coordinates":[139.41285,35.75787]}},{"type":"Feature","properties":{"id":"landmark-1768856036","name":"蓮清寺"},"geometry":{"type":"Point","coordinates":[139.48084,35.58485]}},{"type":"Feature","properties":{"id":"landmark-1771943324","name":"常林寺"},"geometry":{"type":"Point","coordinates":[139.73938,35.6443]}},{"type":"Feature","properties":{"id":"landmark-1771943327","name":"明福寺"},"geometry":{"type":"Point","coordinates":[139.73983,35.64482]}},{"type":"Feature","properties":{"id":"landmark-1772555185","name":"王鳳寺"},"geometry":{"type":"Point","coordinates":[139.73843,35.64391]}},{"type":"Feature","properties":{"id":"landmark-1772594481","name":"寶徳寺"},"geometry":{"type":"Point","coordinates":[139.73717,35.6431]}},{"type":"Feature","properties":{"id":"landmark-1772594482","name":"徳玄寺"},"geometry":{"type":"Point","coordinates":[139.73703,35.64274]}},{"type":"Feature","properties":{"id":"landmark-1772594485","name":"魚藍寺"},"geometry":{"type":"Point","coordinates":[139.73742,35.64265]}},{"type":"Feature","properties":{"id":"landmark-1772676824","name":"大石良雄等自刀ノ跡"},"geometry":{"type":"Point","coordinates":[139.73541,35.63928]}},{"type":"Feature","properties":{"id":"landmark-1773068459","name":"長祐山 承教寺"},"geometry":{"type":"Point","coordinates":[139.73469,35.63666]}},{"type":"Feature","properties":{"id":"landmark-1781306064","name":"川端玉章翁碑"},"geometry":{"type":"Point","coordinates":[139.73629,35.63965]}},{"type":"Feature","properties":{"id":"landmark-1781306065","name":"歯科医学教育発祥之地"},"geometry":{"type":"Point","coordinates":[139.73798,35.64097]}},{"type":"Feature","properties":{"id":"landmark-1790729912","name":"回向院"},"geometry":{"type":"Point","coordinates":[139.79198,35.69345]}},{"type":"Feature","properties":{"id":"landmark-1806505966","name":"ふるさと歴史館"},"geometry":{"type":"Point","coordinates":[139.53468,35.70234]}},{"type":"Feature","properties":{"id":"landmark-1826041316","name":"住吉神社"},"geometry":{"type":"Point","coordinates":[139.26139,35.78963]}},{"type":"Feature","properties":{"id":"landmark-1827144800","name":"佛壽寺"},"geometry":{"type":"Point","coordinates":[139.56612,35.63403]}},{"type":"Feature","properties":{"id":"landmark-1832761914","name":"法性寺"},"geometry":{"type":"Point","coordinates":[139.80001,35.67977]}},{"type":"Feature","properties":{"id":"landmark-1832766310","name":"円珠院"},"geometry":{"type":"Point","coordinates":[139.80092,35.6786]}},{"type":"Feature","properties":{"id":"landmark-1832766316","name":"潮江院"},"geometry":{"type":"Point","coordinates":[139.80149,35.68009]}},{"type":"Feature","properties":{"id":"landmark-1832768988","name":"深川神明宮"},"geometry":{"type":"Point","coordinates":[139.79731,35.68655]}},{"type":"Feature","properties":{"id":"landmark-1832769452","name":"松尾芭蕉像"},"geometry":{"type":"Point","coordinates":[139.79395,35.68378]}},{"type":"Feature","properties":{"id":"landmark-1847926535","name":"村瀬春雄先生像"},"geometry":{"type":"Point","coordinates":[139.44469,35.6948]}},{"type":"Feature","properties":{"id":"landmark-1847926539","name":"矢野二郎先生像"},"geometry":{"type":"Point","coordinates":[139.44474,35.69515]}},{"type":"Feature","properties":{"id":"landmark-1848077231","name":"上田貞二郎先生像"},"geometry":{"type":"Point","coordinates":[139.44317,35.69328]}},{"type":"Feature","properties":{"id":"landmark-1848086185","name":"佐野善作先生像"},"geometry":{"type":"Point","coordinates":[139.44556,35.69442]}},{"type":"Feature","properties":{"id":"landmark-1848543585","name":"常徳院"},"geometry":{"type":"Point","coordinates":[139.64406,35.65167]}},{"type":"Feature","properties":{"id":"landmark-1851291191","name":"真龍寺"},"geometry":{"type":"Point","coordinates":[139.66757,35.6638]}},{"type":"Feature","properties":{"id":"landmark-1857111424","name":"西澄寺"},"geometry":{"type":"Point","coordinates":[139.67786,35.63961]}},{"type":"Feature","properties":{"id":"landmark-1864231227","name":"小笠原ビジターセンター"},"geometry":{"type":"Point","coordinates":[142.19184,27.09307]}},{"type":"Feature","properties":{"id":"landmark-1865761719","name":"浅間山 慈恵院"},"geometry":{"type":"Point","coordinates":[139.49823,35.68114]}},{"type":"Feature","properties":{"id":"landmark-1870457186","name":"世尊院正覚寺"},"geometry":{"type":"Point","coordinates":[139.63657,35.7068]}},{"type":"Feature","properties":{"id":"landmark-1872304139","name":"満願寺"},"geometry":{"type":"Point","coordinates":[139.64977,35.61011]}},{"type":"Feature","properties":{"id":"landmark-1872595035","name":"稲荷森稲荷神社"},"geometry":{"type":"Point","coordinates":[139.62426,35.64693]}},{"type":"Feature","properties":{"id":"landmark-1873552277","name":"赤ぼっこ"},"geometry":{"type":"Point","coordinates":[139.23823,35.76919]}},{"type":"Feature","properties":{"id":"landmark-1873552289","name":"天狗岩"},"geometry":{"type":"Point","coordinates":[139.2348,35.77079]}},{"type":"Feature","properties":{"id":"landmark-1875480852","name":"上妙寺"},"geometry":{"type":"Point","coordinates":[139.84066,35.68315]}},{"type":"Feature","properties":{"id":"landmark-1875521705","name":"羅漢寺"},"geometry":{"type":"Point","coordinates":[139.82668,35.6896]}},{"type":"Feature","properties":{"id":"landmark-1879185824","name":"猿田彦大神 庚申堂"},"geometry":{"type":"Point","coordinates":[139.73049,35.73926]}},{"type":"Feature","properties":{"id":"landmark-1879437595","name":"銅像地蔵菩薩坐像"},"geometry":{"type":"Point","coordinates":[139.73662,35.73415]}},{"type":"Feature","properties":{"id":"landmark-1879926160","name":"等正寺"},"geometry":{"type":"Point","coordinates":[139.62148,35.71762]}},{"type":"Feature","properties":{"id":"landmark-1880385539","name":"テレコムセンター展望室"},"geometry":{"type":"Point","coordinates":[139.78008,35.6171]}},{"type":"Feature","properties":{"id":"landmark-1883725954","name":"帝釈天出現由来碑"},"geometry":{"type":"Point","coordinates":[139.8778,35.75824]}},{"type":"Feature","properties":{"id":"landmark-1883747870","name":"フーテンの寅"},"geometry":{"type":"Point","coordinates":[139.87566,35.75692]}},{"type":"Feature","properties":{"id":"landmark-1883764885","name":"柴又のおもちゃ博物館"},"geometry":{"type":"Point","coordinates":[139.87591,35.75748]}},{"type":"Feature","properties":{"id":"landmark-1883797277","name":"おりつ地蔵尊"},"geometry":{"type":"Point","coordinates":[139.87568,35.75681]}},{"type":"Feature","properties":{"id":"landmark-1884554852","name":"真光寺"},"geometry":{"type":"Point","coordinates":[139.72646,35.76299]}},{"type":"Feature","properties":{"id":"landmark-1891105936","name":"善心寺"},"geometry":{"type":"Point","coordinates":[139.73082,35.7224]}},{"type":"Feature","properties":{"id":"landmark-1891117441","name":"智香寺"},"geometry":{"type":"Point","coordinates":[139.73687,35.72225]}},{"type":"Feature","properties":{"id":"landmark-1891135988","name":"心光寺"},"geometry":{"type":"Point","coordinates":[139.75145,35.72128]}},{"type":"Feature","properties":{"id":"landmark-1891354183","name":"松陰神社"},"geometry":{"type":"Point","coordinates":[139.65612,35.64718]}},{"type":"Feature","properties":{"id":"landmark-1894844811","name":"東京大学医学部戦没同級生の碑"},"geometry":{"type":"Point","coordinates":[139.76354,35.71471]}},{"type":"Feature","properties":{"id":"landmark-1896518223","name":"八景天祖神社"},"geometry":{"type":"Point","coordinates":[139.72687,35.58851]}},{"type":"Feature","properties":{"id":"landmark-1897801904","name":"朗惺寺"},"geometry":{"type":"Point","coordinates":[139.70564,35.6199]}},{"type":"Feature","properties":{"id":"landmark-1899250187","name":"天現寺"},"geometry":{"type":"Point","coordinates":[139.7236,35.648]}},{"type":"Feature","properties":{"id":"landmark-1899258676","name":"東北寺"},"geometry":{"type":"Point","coordinates":[139.71391,35.65193]}},{"type":"Feature","properties":{"id":"landmark-1899389295","name":"室泉寺"},"geometry":{"type":"Point","coordinates":[139.71167,35.65083]}},{"type":"Feature","properties":{"id":"landmark-1899397114","name":"法雲寺"},"geometry":{"type":"Point","coordinates":[139.71363,35.64974]}},{"type":"Feature","properties":{"id":"landmark-1905734771","name":"蓮光院"},"geometry":{"type":"Point","coordinates":[139.68427,35.56942]}},{"type":"Feature","properties":{"id":"landmark-1906574193","name":"妙安寺"},"geometry":{"type":"Point","coordinates":[139.72291,35.56053]}},{"type":"Feature","properties":{"id":"landmark-1906574194","name":"蒲田八幡神社"},"geometry":{"type":"Point","coordinates":[139.72244,35.56074]}},{"type":"Feature","properties":{"id":"landmark-1907902137","name":"智山派宝幢院"},"geometry":{"type":"Point","coordinates":[139.70646,35.54814]}},{"type":"Feature","properties":{"id":"landmark-1907965569","name":"觀音寺"},"geometry":{"type":"Point","coordinates":[139.82255,35.76292]}},{"type":"Feature","properties":{"id":"landmark-1909437670","name":"平塚神社"},"geometry":{"type":"Point","coordinates":[139.74608,35.7462]}},{"type":"Feature","properties":{"id":"landmark-1916524834","name":"神田寺"},"geometry":{"type":"Point","coordinates":[139.77035,35.70136]}},{"type":"Feature","properties":{"id":"landmark-1920496049","name":"安方神社"},"geometry":{"type":"Point","coordinates":[139.7012,35.56315]}},{"type":"Feature","properties":{"id":"landmark-1920496064","name":"遍照院"},"geometry":{"type":"Point","coordinates":[139.70075,35.56317]}},{"type":"Feature","properties":{"id":"landmark-1920523054","name":"大楽寺"},"geometry":{"type":"Point","coordinates":[139.70616,35.55799]}},{"type":"Feature","properties":{"id":"landmark-1920523058","name":"道塚神社"},"geometry":{"type":"Point","coordinates":[139.70607,35.55819]}},{"type":"Feature","properties":{"id":"landmark-1920530311","name":"金剛院"},"geometry":{"type":"Point","coordinates":[139.70699,35.55984]}},{"type":"Feature","properties":{"id":"landmark-1920550360","name":"諏訪神社"},"geometry":{"type":"Point","coordinates":[139.70235,35.55958]}},{"type":"Feature","properties":{"id":"landmark-1920582758","name":"新田神社"},"geometry":{"type":"Point","coordinates":[139.69132,35.56581]}},{"type":"Feature","properties":{"id":"landmark-1923006544","name":"西音寺"},"geometry":{"type":"Point","coordinates":[139.72499,35.76556]}},{"type":"Feature","properties":{"id":"landmark-1925030118","name":"石仏群"},"geometry":{"type":"Point","coordinates":[139.21662,35.63635]}},{"type":"Feature","properties":{"id":"landmark-1925754272","name":"正福院"},"geometry":{"type":"Point","coordinates":[139.78595,35.71034]}},{"type":"Feature","properties":{"id":"landmark-1926436510","name":"圓通寺"},"geometry":{"type":"Point","coordinates":[139.73274,35.67248]}},{"type":"Feature","properties":{"id":"landmark-1928014784","name":"瑞聖寺"},"geometry":{"type":"Point","coordinates":[139.727,35.63726]}},{"type":"Feature","properties":{"id":"landmark-1928727937","name":"心法寺"},"geometry":{"type":"Point","coordinates":[139.73318,35.68579]}},{"type":"Feature","properties":{"id":"landmark-1933235509","name":"正蔵院"},"geometry":{"type":"Point","coordinates":[139.67247,35.68894]}},{"type":"Feature","properties":{"id":"landmark-1933274592","name":"神明氷川神社"},"geometry":{"type":"Point","coordinates":[139.67005,35.68685]}},{"type":"Feature","properties":{"id":"landmark-1934532943","name":"西光山福寿院"},"geometry":{"type":"Point","coordinates":[139.67473,35.69487]}},{"type":"Feature","properties":{"id":"landmark-1934920328","name":"正春寺"},"geometry":{"type":"Point","coordinates":[139.69159,35.68415]}},{"type":"Feature","properties":{"id":"landmark-1947945196","name":"八王子城"},"geometry":{"type":"Point","coordinates":[139.25215,35.65289]}},{"type":"Feature","properties":{"id":"landmark-1957928049","name":"常照院"},"geometry":{"type":"Point","coordinates":[139.75192,35.65755]}},{"type":"Feature","properties":{"id":"landmark-1961272547","name":"善龍寺"},"geometry":{"type":"Point","coordinates":[139.32282,35.66229]}},{"type":"Feature","properties":{"id":"landmark-1962454638","name":"来迎院"},"geometry":{"type":"Point","coordinates":[139.73077,35.59583]}},{"type":"Feature","properties":{"id":"landmark-1964113582","name":"伊勢半本店 紅ミュージアム"},"geometry":{"type":"Point","coordinates":[139.71798,35.65991]}},{"type":"Feature","properties":{"id":"landmark-1966249089","name":"岡本太郎記念館"},"geometry":{"type":"Point","coordinates":[139.71553,35.66127]}},{"type":"Feature","properties":{"id":"landmark-1971727556","name":"光教寺"},"geometry":{"type":"Point","coordinates":[139.7165,35.57797]}},{"type":"Feature","properties":{"id":"landmark-1975522149","name":"中目黒八幡神社"},"geometry":{"type":"Point","coordinates":[139.70032,35.6395]}},{"type":"Feature","properties":{"id":"landmark-1975522153","name":"東京都目黒区立 川の資料館"},"geometry":{"type":"Point","coordinates":[139.70226,35.64132]}},{"type":"Feature","properties":{"id":"landmark-1975902790","name":"アクセサリーミュージアム"},"geometry":{"type":"Point","coordinates":[139.68871,35.64014]}},{"type":"Feature","properties":{"id":"landmark-1976935970","name":"法徳寺"},"geometry":{"type":"Point","coordinates":[139.63137,35.61478]}},{"type":"Feature","properties":{"id":"landmark-1980843350","name":"萩中神社"},"geometry":{"type":"Point","coordinates":[139.72802,35.55213]}},{"type":"Feature","properties":{"id":"landmark-1981080216","name":"重幸稲荷神社"},"geometry":{"type":"Point","coordinates":[139.72817,35.54798]}},{"type":"Feature","properties":{"id":"landmark-1985260070","name":"朗長山 本住寺"},"geometry":{"type":"Point","coordinates":[139.72698,35.54898]}},{"type":"Feature","properties":{"id":"landmark-1985260072","name":"秀明寺"},"geometry":{"type":"Point","coordinates":[139.72673,35.54966]}},{"type":"Feature","properties":{"id":"landmark-1985289756","name":"報身寺"},"geometry":{"type":"Point","coordinates":[139.72581,35.55054]}},{"type":"Feature","properties":{"id":"landmark-1985289757","name":"延徳寺"},"geometry":{"type":"Point","coordinates":[139.72529,35.55061]}},{"type":"Feature","properties":{"id":"landmark-1985289758","name":"善永寺"},"geometry":{"type":"Point","coordinates":[139.7259,35.55104]}},{"type":"Feature","properties":{"id":"landmark-1985289778","name":"麻谷山 福称寺"},"geometry":{"type":"Point","coordinates":[139.72471,35.5506]}},{"type":"Feature","properties":{"id":"landmark-1985300490","name":"妙覚寺"},"geometry":{"type":"Point","coordinates":[139.72482,35.55142]}},{"type":"Feature","properties":{"id":"landmark-1985833633","name":"慈眼寺"},"geometry":{"type":"Point","coordinates":[139.62618,35.62048]}},{"type":"Feature","properties":{"id":"landmark-1985833634","name":"瀬田玉川神社"},"geometry":{"type":"Point","coordinates":[139.62593,35.61997]}},{"type":"Feature","properties":{"id":"landmark-1986819074","name":"島氷川神社"},"geometry":{"type":"Point","coordinates":[139.74968,35.78192]}},{"type":"Feature","properties":{"id":"landmark-1986839288","name":"長樂寺"},"geometry":{"type":"Point","coordinates":[139.75145,35.77791]}},{"type":"Feature","properties":{"id":"landmark-1986983976","name":"宝蔵寺"},"geometry":{"type":"Point","coordinates":[139.75375,35.78158]}},{"type":"Feature","properties":{"id":"landmark-1988275174","name":"玉窓寺"},"geometry":{"type":"Point","coordinates":[139.72303,35.6701]}},{"type":"Feature","properties":{"id":"landmark-1988687854","name":"金龍山三 寳院圓通寺"},"geometry":{"type":"Point","coordinates":[139.7704,35.80426]}},{"type":"Feature","properties":{"id":"landmark-1988687877","name":"南光寺"},"geometry":{"type":"Point","coordinates":[139.76723,35.80269]}},{"type":"Feature","properties":{"id":"landmark-1988690881","name":"三蔵院"},"geometry":{"type":"Point","coordinates":[139.77077,35.80284]}},{"type":"Feature","properties":{"id":"landmark-1988690886","name":"妙蓮寺"},"geometry":{"type":"Point","coordinates":[139.77174,35.80185]}},{"type":"Feature","properties":{"id":"landmark-1988889843","name":"瑞応寺"},"geometry":{"type":"Point","coordinates":[139.77662,35.76071]}},{"type":"Feature","properties":{"id":"landmark-1988916812","name":"本木氷川神社"},"geometry":{"type":"Point","coordinates":[139.78038,35.76225]}},{"type":"Feature","properties":{"id":"landmark-1988931984","name":"佛乗寺"},"geometry":{"type":"Point","coordinates":[139.60364,35.70718]}},{"type":"Feature","properties":{"id":"landmark-1989041398","name":"池尻稲荷神社"},"geometry":{"type":"Point","coordinates":[139.6813,35.64854]}},{"type":"Feature","properties":{"id":"landmark-1989840675","name":"柏木神社"},"geometry":{"type":"Point","coordinates":[139.73061,35.76995]}},{"type":"Feature","properties":{"id":"landmark-1989928650","name":"珠明院"},"geometry":{"type":"Point","coordinates":[139.75983,35.75912]}},{"type":"Feature","properties":{"id":"landmark-1989928694","name":"宮城氷川神社"},"geometry":{"type":"Point","coordinates":[139.75849,35.7619]}},{"type":"Feature","properties":{"id":"landmark-1991079396","name":"竹塚神社"},"geometry":{"type":"Point","coordinates":[139.79436,35.7955]}},{"type":"Feature","properties":{"id":"landmark-1991618030","name":"西光院"},"geometry":{"type":"Point","coordinates":[139.81529,35.7431]}},{"type":"Feature","properties":{"id":"landmark-1992108757","name":"勝専寺"},"geometry":{"type":"Point","coordinates":[139.80103,35.74951]}},{"type":"Feature","properties":{"id":"landmark-1993056420","name":"東京科学大学博物館"},"geometry":{"type":"Point","coordinates":[139.6848,35.60678]}},{"type":"Feature","properties":{"id":"landmark-1994642322","name":"無量山徳寿院"},"geometry":{"type":"Point","coordinates":[139.78624,35.78297]}},{"type":"Feature","properties":{"id":"landmark-1997154678","name":"正光院"},"geometry":{"type":"Point","coordinates":[139.7277,35.65742]}},{"type":"Feature","properties":{"id":"landmark-2002201111","name":"恵明寺"},"geometry":{"type":"Point","coordinates":[139.85022,35.76486]}},{"type":"Feature","properties":{"id":"landmark-2003044664","name":"貞巖寺"},"geometry":{"type":"Point","coordinates":[139.85045,35.74211]}},{"type":"Feature","properties":{"id":"landmark-2003044665","name":"證願寺"},"geometry":{"type":"Point","coordinates":[139.85028,35.74177]}},{"type":"Feature","properties":{"id":"landmark-2003044666","name":"源寿院"},"geometry":{"type":"Point","coordinates":[139.85072,35.74216]}},{"type":"Feature","properties":{"id":"landmark-2003044667","name":"法善寺"},"geometry":{"type":"Point","coordinates":[139.85002,35.74233]}},{"type":"Feature","properties":{"id":"landmark-2003044668","name":"徳念寺"},"geometry":{"type":"Point","coordinates":[139.85006,35.74137]}},{"type":"Feature","properties":{"id":"landmark-2018264145","name":"神田市場跡"},"geometry":{"type":"Point","coordinates":[139.77266,35.69966]}},{"type":"Feature","properties":{"id":"landmark-2038136797","name":"旧五日市鐵道　大神駅跡"},"geometry":{"type":"Point","coordinates":[139.35983,35.70293]}},{"type":"Feature","properties":{"id":"landmark-2038136799","name":"旧五日市鐵道 武蔵田中駅跡"},"geometry":{"type":"Point","coordinates":[139.35515,35.70352]}},{"type":"Feature","properties":{"id":"landmark-2038136809","name":"八高線列車衝突事故"},"geometry":{"type":"Point","coordinates":[139.36418,35.69667]}},{"type":"Feature","properties":{"id":"landmark-2048859776","name":"僧形馬頭観音"},"geometry":{"type":"Point","coordinates":[139.65002,35.75543]}},{"type":"Feature","properties":{"id":"landmark-2051162483","name":"ふじ大山道"},"geometry":{"type":"Point","coordinates":[139.6442,35.75368]}},{"type":"Feature","properties":{"id":"landmark-2057087613","name":"長遠寺"},"geometry":{"type":"Point","coordinates":[139.70966,35.59103]}},{"type":"Feature","properties":{"id":"landmark-2057098626","name":"萬福寺"},"geometry":{"type":"Point","coordinates":[139.71354,35.59012]}},{"type":"Feature","properties":{"id":"landmark-2062686720","name":"熊谷恒子記念館"},"geometry":{"type":"Point","coordinates":[139.71043,35.58594]}},{"type":"Feature","properties":{"id":"landmark-2068114368","name":"瘞鷂碑"},"geometry":{"type":"Point","coordinates":[139.75035,35.70514]}},{"type":"Feature","properties":{"id":"landmark-2068114478","name":"西行堂跡"},"geometry":{"type":"Point","coordinates":[139.7488,35.70479]}},{"type":"Feature","properties":{"id":"landmark-2068114589","name":"小廬山"},"geometry":{"type":"Point","coordinates":[139.74864,35.70556]}},{"type":"Feature","properties":{"id":"landmark-2068114872","name":"藤田東湖先生護母致命之處"},"geometry":{"type":"Point","coordinates":[139.75079,35.70671]}},{"type":"Feature","properties":{"id":"landmark-2070555347","name":"円泉寺"},"geometry":{"type":"Point","coordinates":[139.67039,35.64968]}},{"type":"Feature","properties":{"id":"landmark-2070965887","name":"海岸寺"},"geometry":{"type":"Point","coordinates":[139.73458,35.54779]}},{"type":"Feature","properties":{"id":"landmark-2088085890","name":"踊り子の里資料館"},"geometry":{"type":"Point","coordinates":[139.43979,34.68688]}},{"type":"Feature","properties":{"id":"landmark-2091831585","name":"石の反橋"},"geometry":{"type":"Point","coordinates":[139.42314,34.76823]}},{"type":"Feature","properties":{"id":"landmark-2092311251","name":"外輪山　三原山展望所"},"geometry":{"type":"Point","coordinates":[139.37984,34.73765]}},{"type":"Feature","properties":{"id":"landmark-2092322082","name":"火口展望場"},"geometry":{"type":"Point","coordinates":[139.39243,34.72602]}},{"type":"Feature","properties":{"id":"landmark-2092326821","name":"火口展望台"},"geometry":{"type":"Point","coordinates":[139.3909,34.72883]}},{"type":"Feature","properties":{"id":"landmark-2092334559","name":"火口南展望所"},"geometry":{"type":"Point","coordinates":[139.39594,34.72436]}},{"type":"Feature","properties":{"id":"landmark-2092340618","name":"櫛形山展望台"},"geometry":{"type":"Point","coordinates":[139.40726,34.72716]}},{"type":"Feature","properties":{"id":"landmark-2092344350","name":"新火口展望台"},"geometry":{"type":"Point","coordinates":[139.39175,34.74625]}},{"type":"Feature","properties":{"id":"landmark-2092872482","name":"敬覚寺"},"geometry":{"type":"Point","coordinates":[139.60803,35.7554]}},{"type":"Feature","properties":{"id":"landmark-2092872494","name":"宝林寺"},"geometry":{"type":"Point","coordinates":[139.60859,35.75548]}},{"type":"Feature","properties":{"id":"landmark-2100794330","name":"熊野神社"},"geometry":{"type":"Point","coordinates":[139.66889,35.61064]}},{"type":"Feature","properties":{"id":"landmark-2101334472","name":"昭和のくらし博物館"},"geometry":{"type":"Point","coordinates":[139.68583,35.57522]}},{"type":"Feature","properties":{"id":"landmark-2107135742","name":"葛谷御霊神社"},"geometry":{"type":"Point","coordinates":[139.67602,35.72173]}},{"type":"Feature","properties":{"id":"landmark-2110129998","name":"自性院"},"geometry":{"type":"Point","coordinates":[139.68235,35.72163]}},{"type":"Feature","properties":{"id":"landmark-2110179364","name":"三井文庫"},"geometry":{"type":"Point","coordinates":[139.67627,35.71831]}},{"type":"Feature","properties":{"id":"landmark-2110199189","name":"光徳院"},"geometry":{"type":"Point","coordinates":[139.67652,35.71826]}},{"type":"Feature","properties":{"id":"landmark-2110243246","name":"東光寺"},"geometry":{"type":"Point","coordinates":[139.67626,35.71752]}},{"type":"Feature","properties":{"id":"landmark-2118891972","name":"土田耕平の歌碑"},"geometry":{"type":"Point","coordinates":[139.35513,34.74574]}},{"type":"Feature","properties":{"id":"landmark-2118990298","name":"ボム・サッグ"},"geometry":{"type":"Point","coordinates":[139.43838,34.67924]}},{"type":"Feature","properties":{"id":"landmark-2119040326","name":"天皇陛下行幸碑"},"geometry":{"type":"Point","coordinates":[139.37962,34.73764]}},{"type":"Feature","properties":{"id":"landmark-2119153528","name":"もく星号遭難者慰霊碑"},"geometry":{"type":"Point","coordinates":[139.37947,34.73703]}},{"type":"Feature","properties":{"id":"landmark-2119163619","name":"大島最古の船舶信号機"},"geometry":{"type":"Point","coordinates":[139.43941,34.68548]}},{"type":"Feature","properties":{"id":"landmark-2119171811","name":"波浮の港"},"geometry":{"type":"Point","coordinates":[139.43899,34.68668]}},{"type":"Feature","properties":{"id":"landmark-2119232537","name":"波浮港見晴台"},"geometry":{"type":"Point","coordinates":[139.43565,34.68689]}},{"type":"Feature","properties":{"id":"landmark-2119279565","name":"史跡「鉄砲場」"},"geometry":{"type":"Point","coordinates":[139.44278,34.68519]}},{"type":"Feature","properties":{"id":"landmark-2119285662","name":"もく星号遭難の地"},"geometry":{"type":"Point","coordinates":[139.40863,34.72229]}},{"type":"Feature","properties":{"id":"landmark-2119546562","name":"宮川哲夫の詩"},"geometry":{"type":"Point","coordinates":[139.44088,34.68621]}},{"type":"Feature","properties":{"id":"landmark-2119549836","name":"鉄砲場"},"geometry":{"type":"Point","coordinates":[139.44272,34.68523]}},{"type":"Feature","properties":{"id":"landmark-2119552210","name":"陸軍防空壕"},"geometry":{"type":"Point","coordinates":[139.44258,34.68518]}},{"type":"Feature","properties":{"id":"landmark-2119553854","name":"弾薬庫"},"geometry":{"type":"Point","coordinates":[139.44255,34.68514]}},{"type":"Feature","properties":{"id":"landmark-2119555781","name":"塹壕跡"},"geometry":{"type":"Point","coordinates":[139.44241,34.68534]}},{"type":"Feature","properties":{"id":"landmark-2119563166","name":"金子勇博古館"},"geometry":{"type":"Point","coordinates":[139.44278,34.68873]}},{"type":"Feature","properties":{"id":"landmark-2119585746","name":"筆島"},"geometry":{"type":"Point","coordinates":[139.44324,34.70228]}},{"type":"Feature","properties":{"id":"landmark-2119605264","name":"春日神社"},"geometry":{"type":"Point","coordinates":[139.41548,34.68789]}},{"type":"Feature","properties":{"id":"landmark-2119661011","name":"展望広場"},"geometry":{"type":"Point","coordinates":[139.37006,34.75313]}},{"type":"Feature","properties":{"id":"landmark-2120149860","name":"藤森成吉文学碑"},"geometry":{"type":"Point","coordinates":[139.35199,34.75504]}},{"type":"Feature","properties":{"id":"landmark-2120200990","name":"頌源八郎公碑"},"geometry":{"type":"Point","coordinates":[139.35197,34.75473]}},{"type":"Feature","properties":{"id":"landmark-2120258528","name":"藤井清左衛門彰徳の碑"},"geometry":{"type":"Point","coordinates":[139.35648,34.75112]}},{"type":"Feature","properties":{"id":"landmark-2120269969","name":"下高洞遺跡"},"geometry":{"type":"Point","coordinates":[139.35707,34.74217]}},{"type":"Feature","properties":{"id":"landmark-2120309533","name":"昭和天皇御上陸記念碑"},"geometry":{"type":"Point","coordinates":[139.35372,34.75073]}},{"type":"Feature","properties":{"id":"landmark-2125953396","name":"平和記念像"},"geometry":{"type":"Point","coordinates":[139.73661,35.75468]}},{"type":"Feature","properties":{"id":"landmark-2126296137","name":"一峰院"},"geometry":{"type":"Point","coordinates":[139.3006,35.76202]}},{"type":"Feature","properties":{"id":"landmark-2126302486","name":"玉川兄弟の像"},"geometry":{"type":"Point","coordinates":[139.30896,35.75529]}},{"type":"Feature","properties":{"id":"landmark-2126308858","name":"まいまいずいど"},"geometry":{"type":"Point","coordinates":[139.31716,35.75839]}},{"type":"Feature","properties":{"id":"landmark-2128306382","name":"グリーングリーンハーモニー"},"geometry":{"type":"Point","coordinates":[139.39348,35.67923]}},{"type":"Feature","properties":{"id":"landmark-2128595399","name":"小熊"},"geometry":{"type":"Point","coordinates":[139.36875,34.75297]}},{"type":"Feature","properties":{"id":"landmark-2128595407","name":"溶岩樹型"},"geometry":{"type":"Point","coordinates":[139.36808,34.75287]}},{"type":"Feature","properties":{"id":"landmark-2128595419","name":"長沢砂防災害復旧事業完成記念碑"},"geometry":{"type":"Point","coordinates":[139.37016,34.75304]}},{"type":"Feature","properties":{"id":"landmark-2128604358","name":"ゴジラ"},"geometry":{"type":"Point","coordinates":[139.35209,34.75486]}},{"type":"Feature","properties":{"id":"landmark-2130157085","name":"東京オリンピック競歩折返点"},"geometry":{"type":"Point","coordinates":[139.48449,35.67262]}},{"type":"Feature","properties":{"id":"landmark-2130473336","name":"アカカンガルー"},"geometry":{"type":"Point","coordinates":[139.39713,35.64984]}},{"type":"Feature","properties":{"id":"landmark-2130473345","name":"イヌワシ"},"geometry":{"type":"Point","coordinates":[139.39893,35.65027]}},{"type":"Feature","properties":{"id":"landmark-2130473350","name":"インコ"},"geometry":{"type":"Point","coordinates":[139.40019,35.65008]}},{"type":"Feature","properties":{"id":"landmark-2130473359","name":"エミュー"},"geometry":{"type":"Point","coordinates":[139.39734,35.65]}},{"type":"Feature","properties":{"id":"landmark-2130473360","name":"オオカミ"},"geometry":{"type":"Point","coordinates":[139.39787,35.64749]}},{"type":"Feature","properties":{"id":"landmark-2130473363","name":"オランウータン"},"geometry":{"type":"Point","coordinates":[139.39505,35.64847]}},{"type":"Feature","properties":{"id":"landmark-2130473365","name":"カワウソ"},"geometry":{"type":"Point","coordinates":[139.3994,35.64956]}},{"type":"Feature","properties":{"id":"landmark-2130473367","name":"コウノトリ"},"geometry":{"type":"Point","coordinates":[139.4005,35.64858]}},{"type":"Feature","properties":{"id":"landmark-2130473369","name":"サギ"},"geometry":{"type":"Point","coordinates":[139.40036,35.64839]}},{"type":"Feature","properties":{"id":"landmark-2130473370","name":"サーバル"},"geometry":{"type":"Point","coordinates":[139.40346,35.65271]}},{"type":"Feature","properties":{"id":"landmark-2130473372","name":"シフゾウ"},"geometry":{"type":"Point","coordinates":[139.39606,35.64809]}},{"type":"Feature","properties":{"id":"landmark-2130473373","name":"シャモア"},"geometry":{"type":"Point","coordinates":[139.39669,35.64705]}},{"type":"Feature","properties":{"id":"landmark-2130473374","name":"シロテナガザル"},"geometry":{"type":"Point","coordinates":[139.39574,35.64854]}},{"type":"Feature","properties":{"id":"landmark-2130473376","name":"ソデグロヅル"},"geometry":{"type":"Point","coordinates":[139.40144,35.65021]}},{"type":"Feature","properties":{"id":"landmark-2130473377","name":"タヌキ"},"geometry":{"type":"Point","coordinates":[139.39948,35.65012]}},{"type":"Feature","properties":{"id":"landmark-2130473378","name":"ターキン"},"geometry":{"type":"Point","coordinates":[139.39625,35.64722]}},{"type":"Feature","properties":{"id":"landmark-2130473379","name":"チーター"},"geometry":{"type":"Point","coordinates":[139.40306,35.65248]}},{"type":"Feature","properties":{"id":"landmark-2130473380","name":"トキ"},"geometry":{"type":"Point","coordinates":[139.40022,35.64816]}},{"type":"Feature","properties":{"id":"landmark-2130473381","name":"トナカイ"},"geometry":{"type":"Point","coordinates":[139.39764,35.65012]}},{"type":"Feature","properties":{"id":"landmark-2130473382","name":"トラ"},"geometry":{"type":"Point","coordinates":[139.39636,35.64859]}},{"type":"Feature","properties":{"id":"landmark-2130473383","name":"ニホンカモシカ"},"geometry":{"type":"Point","coordinates":[139.39638,35.64809]}},{"type":"Feature","properties":{"id":"landmark-2130473384","name":"ノウサギ"},"geometry":{"type":"Point","coordinates":[139.39985,35.64981]}},{"type":"Feature","properties":{"id":"landmark-2130473434","name":"ハクビシン"},"geometry":{"type":"Point","coordinates":[139.39679,35.64863]}},{"type":"Feature","properties":{"id":"landmark-2130473435","name":"ツキノワグマ"},"geometry":{"type":"Point","coordinates":[139.40047,35.65018]}},{"type":"Feature","properties":{"id":"landmark-2130473436","name":"フクロウ"},"geometry":{"type":"Point","coordinates":[139.39914,35.65032]}},{"type":"Feature","properties":{"id":"landmark-2130473437","name":"マレーバク"},"geometry":{"type":"Point","coordinates":[139.39982,35.64957]}},{"type":"Feature","properties":{"id":"landmark-2130473438","name":"ムササビ"},"geometry":{"type":"Point","coordinates":[139.40076,35.65023]}},{"type":"Feature","properties":{"id":"landmark-2130473439","name":"グレビーシマウマ"},"geometry":{"type":"Point","coordinates":[139.39985,35.65063]}},{"type":"Feature","properties":{"id":"landmark-2130473441","name":"モルモット"},"geometry":{"type":"Point","coordinates":[139.40005,35.64981]}},{"type":"Feature","properties":{"id":"landmark-2130473442","name":"ヤギ"},"geometry":{"type":"Point","coordinates":[139.40022,35.64976]}},{"type":"Feature","properties":{"id":"landmark-2130473443","name":"ユキヒョウ"},"geometry":{"type":"Point","coordinates":[139.39551,35.64792]}},{"type":"Feature","properties":{"id":"landmark-2130473444","name":"レッサーパンダ"},"geometry":{"type":"Point","coordinates":[139.39573,35.64743]}},{"type":"Feature","properties":{"id":"landmark-2130473445","name":"ワシ"},"geometry":{"type":"Point","coordinates":[139.39877,35.65062]}},{"type":"Feature","properties":{"id":"landmark-2130473446","name":"ワライカワセミ"},"geometry":{"type":"Point","coordinates":[139.39531,35.6489]}},{"type":"Feature","properties":{"id":"landmark-2130606452","name":"馬等尊"},"geometry":{"type":"Point","coordinates":[139.37557,35.70537]}},{"type":"Feature","properties":{"id":"landmark-2139683757","name":"経塚古墳"},"geometry":{"type":"Point","coordinates":[139.57467,35.63349]}},{"type":"Feature","properties":{"id":"landmark-2139804393","name":"舎人氷川神社"},"geometry":{"type":"Point","coordinates":[139.76946,35.81339]}},{"type":"Feature","properties":{"id":"landmark-2140085584","name":"一本杉"},"geometry":{"type":"Point","coordinates":[139.30158,35.75862]}},{"type":"Feature","properties":{"id":"landmark-2140089856","name":"武蔵阿蘇神社南参道鳥居"},"geometry":{"type":"Point","coordinates":[139.29936,35.75966]}},{"type":"Feature","properties":{"id":"landmark-2140329229","name":"圓住院"},"geometry":{"type":"Point","coordinates":[139.5873,35.62743]}},{"type":"Feature","properties":{"id":"landmark-2142640124","name":"道玄坂乃碑"},"geometry":{"type":"Point","coordinates":[139.69642,35.65766]}},{"type":"Feature","properties":{"id":"landmark-2142640125","name":"道玄坂道供養碑"},"geometry":{"type":"Point","coordinates":[139.69643,35.65765]}},{"type":"Feature","properties":{"id":"landmark-2146878969","name":"岩戸八幡神社"},"geometry":{"type":"Point","coordinates":[139.58821,35.62972]}},{"type":"Feature","properties":{"id":"landmark-2147177395","name":"大仙寺"},"geometry":{"type":"Point","coordinates":[139.48486,35.71116]}},{"type":"Feature","properties":{"id":"landmark-2147322397","name":"小金井橋の要石"},"geometry":{"type":"Point","coordinates":[139.50828,35.71248]}},{"type":"Feature","properties":{"id":"landmark-2150155199","name":"あきちゃんたまちゃん"},"geometry":{"type":"Point","coordinates":[139.38374,35.70602]}},{"type":"Feature","properties":{"id":"landmark-2151444450","name":"トマスブレークモア碑"},"geometry":{"type":"Point","coordinates":[139.18955,35.74259]}},{"type":"Feature","properties":{"id":"landmark-2155516780","name":"三谷八幡神社"},"geometry":{"type":"Point","coordinates":[139.7027,35.61707]}},{"type":"Feature","properties":{"id":"landmark-2163859026","name":"日本電気創立当時の建物基礎"},"geometry":{"type":"Point","coordinates":[139.74844,35.64981]}},{"type":"Feature","properties":{"id":"landmark-2166653584","name":"徳持神社"},"geometry":{"type":"Point","coordinates":[139.69962,35.57314]}},{"type":"Feature","properties":{"id":"landmark-2168886087","name":"長泉寺"},"geometry":{"type":"Point","coordinates":[139.61016,35.67105]}},{"type":"Feature","properties":{"id":"landmark-2179766912","name":"林芙美子記念館"},"geometry":{"type":"Point","coordinates":[139.68427,35.71585]}},{"type":"Feature","properties":{"id":"landmark-2187122306","name":"拝島大師"},"geometry":{"type":"Point","coordinates":[139.3471,35.70574]}},{"type":"Feature","properties":{"id":"landmark-2190539042","name":"金比羅公園展望台"},"geometry":{"type":"Point","coordinates":[139.20839,35.73612]}},{"type":"Feature","properties":{"id":"landmark-2202801702","name":"Giant Panda ジャイアントパンダ"},"geometry":{"type":"Point","coordinates":[139.77683,35.71317]}},{"type":"Feature","properties":{"id":"landmark-2236756021","name":"大師道"},"geometry":{"type":"Point","coordinates":[139.74185,35.73747]}},{"type":"Feature","properties":{"id":"landmark-2245660356","name":"旧中川・川の駅"},"geometry":{"type":"Point","coordinates":[139.84696,35.68747]}},{"type":"Feature","properties":{"id":"landmark-2254651382","name":"日野宿本陣"},"geometry":{"type":"Point","coordinates":[139.39966,35.67829]}},{"type":"Feature","properties":{"id":"landmark-2258202675","name":"小網神社"},"geometry":{"type":"Point","coordinates":[139.78045,35.68417]}},{"type":"Feature","properties":{"id":"landmark-2259167114","name":"葦毛塚"},"geometry":{"type":"Point","coordinates":[139.68654,35.63917]}},{"type":"Feature","properties":{"id":"landmark-2262375004","name":"お玉ヶ池跡"},"geometry":{"type":"Point","coordinates":[139.77597,35.69393]}},{"type":"Feature","properties":{"id":"landmark-2263330661","name":"弥陀種子板碑"},"geometry":{"type":"Point","coordinates":[139.74202,35.6457]}},{"type":"Feature","properties":{"id":"landmark-2265493463","name":"弥生式土器発掘ゆかりの地"},"geometry":{"type":"Point","coordinates":[139.76279,35.71621]}},{"type":"Feature","properties":{"id":"landmark-2266792148","name":"大高源五句碑"},"geometry":{"type":"Point","coordinates":[139.78989,35.69405]}},{"type":"Feature","properties":{"id":"landmark-2266792362","name":"浅草御蔵跡碑"},"geometry":{"type":"Point","coordinates":[139.79242,35.70151]}},{"type":"Feature","properties":{"id":"landmark-2268159655","name":"深川稲荷神社"},"geometry":{"type":"Point","coordinates":[139.79689,35.68292]}},{"type":"Feature","properties":{"id":"landmark-2268159675","name":"臨川寺"},"geometry":{"type":"Point","coordinates":[139.79769,35.68179]}},{"type":"Feature","properties":{"id":"landmark-2268159676","name":"村田春海の墓"},"geometry":{"type":"Point","coordinates":[139.79787,35.68126]}},{"type":"Feature","properties":{"id":"landmark-2268216643","name":"宗福寺"},"geometry":{"type":"Point","coordinates":[139.70964,35.59907]}},{"type":"Feature","properties":{"id":"landmark-2268946998","name":"金蓮院"},"geometry":{"type":"Point","coordinates":[139.87459,35.7724]}},{"type":"Feature","properties":{"id":"landmark-2273573457","name":"奥澤神社"},"geometry":{"type":"Point","coordinates":[139.67126,35.60538]}},{"type":"Feature","properties":{"id":"landmark-2278340011","name":"亀塚"},"geometry":{"type":"Point","coordinates":[139.74103,35.64346]}},{"type":"Feature","properties":{"id":"landmark-2279256797","name":"江島杉山神社"},"geometry":{"type":"Point","coordinates":[139.79261,35.69134]}},{"type":"Feature","properties":{"id":"landmark-2281928781","name":"義勇消防記念碑"},"geometry":{"type":"Point","coordinates":[139.72764,35.60424]}},{"type":"Feature","properties":{"id":"landmark-2283027849","name":"乃木大将と辻占売少年像"},"geometry":{"type":"Point","coordinates":[139.72741,35.66836]}},{"type":"Feature","properties":{"id":"landmark-2283667893","name":"都旧跡 元和キリシタン遺跡"},"geometry":{"type":"Point","coordinates":[139.74214,35.64474]}},{"type":"Feature","properties":{"id":"landmark-2283943982","name":"Button Museum"},"geometry":{"type":"Point","coordinates":[139.78787,35.69119]}},{"type":"Feature","properties":{"id":"landmark-2283943984","name":"御臨幸記念碑"},"geometry":{"type":"Point","coordinates":[139.78766,35.69232]}},{"type":"Feature","properties":{"id":"landmark-2285607662","name":"Memorial Time Capsule"},"geometry":{"type":"Point","coordinates":[139.7859,35.6711]}},{"type":"Feature","properties":{"id":"landmark-2285728025","name":"ひまわり墓苑"},"geometry":{"type":"Point","coordinates":[139.43324,35.74993]}},{"type":"Feature","properties":{"id":"landmark-2286261969","name":"小菅神社"},"geometry":{"type":"Point","coordinates":[139.82121,35.75469]}},{"type":"Feature","properties":{"id":"landmark-2290161567","name":"土橋観音菩薩"},"geometry":{"type":"Point","coordinates":[139.82383,35.75221]}},{"type":"Feature","properties":{"id":"landmark-2290237209","name":"昌栄稲荷社"},"geometry":{"type":"Point","coordinates":[139.82804,35.75663]}},{"type":"Feature","properties":{"id":"landmark-2293353520","name":"田島山十一ヶ寺"},"geometry":{"type":"Point","coordinates":[139.64931,35.74171]}},{"type":"Feature","properties":{"id":"landmark-2295382936","name":"野口英世銅像"},"geometry":{"type":"Point","coordinates":[139.77556,35.71628]}},{"type":"Feature","properties":{"id":"landmark-2295402068","name":"森鴎外総長室跡"},"geometry":{"type":"Point","coordinates":[139.77561,35.71933]}},{"type":"Feature","properties":{"id":"landmark-2295502580","name":"穴稲荷"},"geometry":{"type":"Point","coordinates":[139.77248,35.71367]}},{"type":"Feature","properties":{"id":"landmark-2315877380","name":"天祖神社 祖霊社"},"geometry":{"type":"Point","coordinates":[139.82651,35.74614]}},{"type":"Feature","properties":{"id":"landmark-2329499317","name":"なかだ蔵"},"geometry":{"type":"Point","coordinates":[139.80419,35.75446]}},{"type":"Feature","properties":{"id":"landmark-2329499480","name":"千住宿"},"geometry":{"type":"Point","coordinates":[139.80392,35.7527]}},{"type":"Feature","properties":{"id":"landmark-2329499490","name":"横山家住宅"},"geometry":{"type":"Point","coordinates":[139.80432,35.75384]}},{"type":"Feature","properties":{"id":"landmark-2329499494","name":"高正天満宮縁起碑"},"geometry":{"type":"Point","coordinates":[139.80557,35.75421]}},{"type":"Feature","properties":{"id":"landmark-2332635630","name":"妙乗寺"},"geometry":{"type":"Point","coordinates":[139.80334,35.74615]}},{"type":"Feature","properties":{"id":"landmark-2332635664","name":"天水槽"},"geometry":{"type":"Point","coordinates":[139.79792,35.74362]}},{"type":"Feature","properties":{"id":"landmark-2332635665","name":"庚申塚"},"geometry":{"type":"Point","coordinates":[139.79664,35.74743]}},{"type":"Feature","properties":{"id":"landmark-2332635666","name":"千寿弁財天"},"geometry":{"type":"Point","coordinates":[139.80218,35.74397]}},{"type":"Feature","properties":{"id":"landmark-2332635667","name":"日露戦役紀念碑"},"geometry":{"type":"Point","coordinates":[139.79706,35.74708]}},{"type":"Feature","properties":{"id":"landmark-2332635669","name":"毘沙門天像"},"geometry":{"type":"Point","coordinates":[139.79788,35.74566]}},{"type":"Feature","properties":{"id":"landmark-2332635672","name":"福禄寿像"},"geometry":{"type":"Point","coordinates":[139.79795,35.74358]}},{"type":"Feature","properties":{"id":"landmark-2332635674","name":"稲荷神社"},"geometry":{"type":"Point","coordinates":[139.79793,35.74353]}},{"type":"Feature","properties":{"id":"landmark-2333009719","name":"東京大学大学院総合文化研究科教養学部美術博物館"},"geometry":{"type":"Point","coordinates":[139.68571,35.65936]}},{"type":"Feature","properties":{"id":"landmark-2340152791","name":"六郷用水跡"},"geometry":{"type":"Point","coordinates":[139.67326,35.58355]}},{"type":"Feature","properties":{"id":"landmark-2345184702","name":"赤穂義士史蹟碑"},"geometry":{"type":"Point","coordinates":[139.7348,35.63999]}},{"type":"Feature","properties":{"id":"landmark-2355653169","name":"玉電と郷土の歴史館"},"geometry":{"type":"Point","coordinates":[139.62287,35.6167]}},{"type":"Feature","properties":{"id":"landmark-2355655547","name":"野川水道橋"},"geometry":{"type":"Point","coordinates":[139.61358,35.61948]}},{"type":"Feature","properties":{"id":"landmark-2355656686","name":"野川と野川水道橋の由来"},"geometry":{"type":"Point","coordinates":[139.61365,35.61917]}},{"type":"Feature","properties":{"id":"landmark-2355662302","name":"導水管"},"geometry":{"type":"Point","coordinates":[139.61277,35.61662]}},{"type":"Feature","properties":{"id":"landmark-2355669623","name":"牧水碑"},"geometry":{"type":"Point","coordinates":[139.62409,35.61186]}},{"type":"Feature","properties":{"id":"landmark-2355688129","name":"亀の像"},"geometry":{"type":"Point","coordinates":[139.65089,35.63335]}},{"type":"Feature","properties":{"id":"landmark-2356078936","name":"多摩川サミット記念碑"},"geometry":{"type":"Point","coordinates":[139.6224,35.61272]}},{"type":"Feature","properties":{"id":"landmark-2356795249","name":"乗泉寺"},"geometry":{"type":"Point","coordinates":[139.70185,35.65323]}},{"type":"Feature","properties":{"id":"landmark-2366680454","name":"大廣神社"},"geometry":{"type":"Point","coordinates":[139.79009,35.68557]}},{"type":"Feature","properties":{"id":"landmark-2369996459","name":"北条氏照墓"},"geometry":{"type":"Point","coordinates":[139.26119,35.65754]}},{"type":"Feature","properties":{"id":"landmark-2371385084","name":"郡界"},"geometry":{"type":"Point","coordinates":[139.30032,35.71177]}},{"type":"Feature","properties":{"id":"landmark-2371452197","name":"詰の城"},"geometry":{"type":"Point","coordinates":[139.24799,35.65115]}},{"type":"Feature","properties":{"id":"landmark-2375692281","name":"温室の遺構"},"geometry":{"type":"Point","coordinates":[139.71217,35.68697]}},{"type":"Feature","properties":{"id":"landmark-2376643940","name":"地蔵 道しるべ"},"geometry":{"type":"Point","coordinates":[139.70161,35.64714]}},{"type":"Feature","properties":{"id":"landmark-2383923980","name":"名勝 小金井櫻"},"geometry":{"type":"Point","coordinates":[139.50775,35.7126]}},{"type":"Feature","properties":{"id":"landmark-2383934564","name":"三鷹天明反転住宅"},"geometry":{"type":"Point","coordinates":[139.53804,35.681]}},{"type":"Feature","properties":{"id":"landmark-2385944690","name":"神田猿楽町町会詰所"},"geometry":{"type":"Point","coordinates":[139.75819,35.69922]}},{"type":"Feature","properties":{"id":"landmark-2385950544","name":"多武峯内藤神社"},"geometry":{"type":"Point","coordinates":[139.71529,35.68501]}},{"type":"Feature","properties":{"id":"landmark-2388566136","name":"東京都庁展望室 北"},"geometry":{"type":"Point","coordinates":[139.69161,35.68991]}},{"type":"Feature","properties":{"id":"landmark-2388566137","name":"東京都庁展望室 南"},"geometry":{"type":"Point","coordinates":[139.69176,35.68909]}},{"type":"Feature","properties":{"id":"landmark-2405798018","name":"石坂供養塔"},"geometry":{"type":"Point","coordinates":[139.46551,35.66641]}},{"type":"Feature","properties":{"id":"landmark-2408502251","name":"一願地蔵尊"},