[
  {
    "id": "ward-1543055",
    "name": "杉並区",
    "lat": 35.698655,
    "lng": 139.626445
  },
  {
    "id": "ward-1543056",
    "name": "中野区",
    "lat": 35.70606,
    "lng": 139.65928
  },
  {
    "id": "ward-1758858",
    "name": "新宿区",
    "lat": 35.70156,
    "lng": 139.709205
  },
  {
    "id": "ward-1758878",
    "name": "文京区",
    "lat": 35.717699999999994,
    "lng": 139.74486000000002
  },
  {
    "id": "ward-1758888",
    "name": "台東区",
    "lat": 35.713210000000004,
    "lng": 139.786035
  },
  {
    "id": "ward-1758891",
    "name": "墨田区",
    "lat": 35.715105,
    "lng": 139.81578000000002
  },
  {
    "id": "ward-1758897",
    "name": "中央区",
    "lat": 35.668405,
    "lng": 139.77585499999998
  },
  {
    "id": "ward-1758936",
    "name": "目黒区",
    "lat": 35.632355000000004,
    "lng": 139.68968999999998
  },
  {
    "id": "ward-1758947",
    "name": "大田区",
    "lat": 35.547385,
    "lng": 139.755325
  },
  {
    "id": "ward-1759474",
    "name": "世田谷区",
    "lat": 35.636495,
    "lng": 139.6345
  },
  {
    "id": "ward-1759475",
    "name": "狛江市",
    "lat": 35.634550000000004,
    "lng": 139.57795
  },
  {
    "id": "ward-1759477",
    "name": "渋谷区",
    "lat": 35.666825,
    "lng": 139.692655
  },
  {
    "id": "ward-1759506",
    "name": "豊島区",
    "lat": 35.729145,
    "lng": 139.71506
  },
  {
    "id": "ward-1760038",
    "name": "北区",
    "lat": 35.76531,
    "lng": 139.730065
  },
  {
    "id": "ward-1760040",
    "name": "荒川区",
    "lat": 35.739815,
    "lng": 139.782095
  },
  {
    "id": "ward-1760078",
    "name": "板橋区",
    "lat": 35.768305,
    "lng": 139.67365
  },
  {
    "id": "ward-1760119",
    "name": "練馬区",
    "lat": 35.745795,
    "lng": 139.62202000000002
  },
  {
    "id": "ward-1760124",
    "name": "足立区",
    "lat": 35.77807,
    "lng": 139.79719
  },
  {
    "id": "ward-1761717",
    "name": "港区",
    "lat": 35.652845,
    "lng": 139.745835
  },
  {
    "id": "ward-1761718",
    "name": "葛飾区",
    "lat": 35.754149999999996,
    "lng": 139.8539
  },
  {
    "id": "ward-1761742",
    "name": "千代田区",
    "lat": 35.686930000000004,
    "lng": 139.75648999999999
  },
  {
    "id": "ward-1761743",
    "name": "江戸川区",
    "lat": 35.64102,
    "lng": 139.85816
  },
  {
    "id": "ward-1761771",
    "name": "立川市",
    "lat": 35.71403,
    "lng": 139.399225
  },
  {
    "id": "ward-1761804",
    "name": "武蔵野市",
    "lat": 35.70801,
    "lng": 139.56006000000002
  },
  {
    "id": "ward-1761820",
    "name": "三鷹市",
    "lat": 35.683405,
    "lng": 139.559215
  },
  {
    "id": "ward-1761834",
    "name": "青梅市",
    "lat": 35.802710000000005,
    "lng": 139.23387
  },
  {
    "id": "ward-3554015",
    "name": "江東区",
    "lat": 35.64837,
    "lng": 139.80763000000002
  },
  {
    "id": "ward-3554304",
    "name": "品川区",
    "lat": 35.61304,
    "lng": 139.737545
  },
  {
    "id": "ward-3605798",
    "name": "大島町",
    "lat": 34.74835,
    "lng": 139.48253
  },
  {
    "id": "ward-3605809",
    "name": "利島村",
    "lat": 34.566825,
    "lng": 139.29000000000002
  },
  {
    "id": "ward-3605834",
    "name": "新島村",
    "lat": 34.3626,
    "lng": 139.25858
  },
  {
    "id": "ward-3605872",
    "name": "神津島村",
    "lat": 34.06169,
    "lng": 138.967645
  },
  {
    "id": "ward-3606125",
    "name": "御蔵島村",
    "lat": 33.73826,
    "lng": 139.465445
  },
  {
    "id": "ward-3606126",
    "name": "三宅村",
    "lat": 34.086925,
    "lng": 139.47848
  },
  {
    "id": "ward-3807613",
    "name": "稲城市",
    "lat": 35.628555000000006,
    "lng": 139.49464999999998
  },
  {
    "id": "ward-4561990",
    "name": "小笠原村",
    "lat": 24.077935,
    "lng": 145.029615
  },
  {
    "id": "ward-5100276",
    "name": "町田市",
    "lat": 35.56243,
    "lng": 139.38810999999998
  },
  {
    "id": "ward-5299311",
    "name": "奥多摩町",
    "lat": 35.8185,
    "lng": 139.060645
  },
  {
    "id": "ward-5301344",
    "name": "あきる野市",
    "lat": 35.733265,
    "lng": 139.232755
  },
  {
    "id": "ward-5301345",
    "name": "日の出町",
    "lat": 35.760324999999995,
    "lng": 139.223865
  },
  {
    "id": "ward-5301346",
    "name": "檜原村",
    "lat": 35.722570000000005,
    "lng": 139.09244999999999
  },
  {
    "id": "ward-5301559",
    "name": "羽村市",
    "lat": 35.764105,
    "lng": 139.31770999999998
  },
  {
    "id": "ward-5301639",
    "name": "八王子市",
    "lat": 35.65872,
    "lng": 139.29595
  },
  {
    "id": "ward-5301640",
    "name": "昭島市",
    "lat": 35.70882,
    "lng": 139.36503
  },
  {
    "id": "ward-5301641",
    "name": "武蔵村山市",
    "lat": 35.753465000000006,
    "lng": 139.38476500000002
  },
  {
    "id": "ward-5301642",
    "name": "瑞穂町",
    "lat": 35.768874999999994,
    "lng": 139.349885
  },
  {
    "id": "ward-5301643",
    "name": "福生市",
    "lat": 35.733385,
    "lng": 139.33696500000002
  },
  {
    "id": "ward-5301789",
    "name": "多摩市",
    "lat": 35.631585,
    "lng": 139.43372
  },
  {
    "id": "ward-5301790",
    "name": "日野市",
    "lat": 35.66551,
    "lng": 139.39946500000002
  },
  {
    "id": "ward-5302157",
    "name": "国分寺市",
    "lat": 35.705619999999996,
    "lng": 139.459975
  },
  {
    "id": "ward-5302158",
    "name": "国立市",
    "lat": 35.68723,
    "lng": 139.43859
  },
  {
    "id": "ward-5302159",
    "name": "小平市",
    "lat": 35.727235,
    "lng": 139.473745
  },
  {
    "id": "ward-5302160",
    "name": "東大和市",
    "lat": 35.749655000000004,
    "lng": 139.422265
  },
  {
    "id": "ward-5302161",
    "name": "東村山市",
    "lat": 35.757915,
    "lng": 139.47238499999997
  },
  {
    "id": "ward-5302326",
    "name": "小金井市",
    "lat": 35.701355,
    "lng": 139.50924500000002
  },
  {
    "id": "ward-5302327",
    "name": "府中市",
    "lat": 35.67304,
    "lng": 139.478135
  },
  {
    "id": "ward-5302328",
    "name": "東久留米市",
    "lat": 35.75323,
    "lng": 139.51628499999998
  },
  {
    "id": "ward-5302329",
    "name": "清瀬市",
    "lat": 35.784285,
    "lng": 139.521985
  },
  {
    "id": "ward-5302330",
    "name": "西東京市",
    "lat": 35.73622,
    "lng": 139.543135
  },
  {
    "id": "ward-5303898",
    "name": "調布市",
    "lat": 35.66041,
    "lng": 139.55516
  },
  {
    "id": "ward-5305020",
    "name": "八丈町",
    "lat": 33.10714,
    "lng": 139.767225
  },
  {
    "id": "ward-5305021",
    "name": "青ヶ島村",
    "lat": 32.45824,
    "lng": 139.76762000000002
  }
]